State Name,District Name,Subdistrict Name,Facility Type,Facility Name,Facility Address,Latitude,Longitude,ActiveFlag_C,NOTIONAL_PHYSICAL,Location Type,Type Of Facility,Nin_N
Chhattisgarh,Sukma,Konta,chc,Konta,NA,17.80795059,81.38096365,Y,Physical,Rural,Public,NA
Chhattisgarh,Bijapur,USOOR,chc,Usoor,NA,18.48546719,80.74938174,Y,Physical,Rural,Public,NA
Chhattisgarh,Sukma,Chhindgarh,chc,Chhindgarh,NA,18.52645571,81.74985508,Y,Physical,Rural,Public,NA
Chhattisgarh,Dantewada,KUAKONDA,chc,Kirandul,NA,18.64509833,81.25344833,Y,Physical,Rural,Public,NA
Chhattisgarh,Dantewada,KUAKONDA,chc,Kuakonda,NA,18.722935,81.41984167,Y,Physical,Rural,Public,NA
Chhattisgarh,Bijapur,BIJAPUR,chc,Gangaloor,NA,18.75519419,81.02777093,Y,Physical,Rural,Public,NA
Chhattisgarh,Dantewada,KATEKALYAAN,chc,Kateklyan,NA,18.80151651,81.63789987,Y,Physical,Rural,Public,NA
Chhattisgarh,Bastar,DARBHA,chc,DARBHA,NA,18.87143205,81.86978511,Y,Physical,Rural,Public,NA
Chhattisgarh,Bijapur,BHOPALPATTANAM,chc,Bhopalpattnam,NA,18.87503624,80.38509369,Y,Physical,Rural,Public,NA
Chhattisgarh,Bastar,Nangoor,chc,Nangoor,NA,18.94322441,82.04362887,Y,Physical,Rural,Public,NA
Chhattisgarh,Dantewada,Geedam,chc,Geedam,NA,18.97363833,81.40599833,Y,Physical,Rural,Public,NA
Chhattisgarh,Bastar,BASTANAAR,chc,BADE KILEPAL,NA,18.98859765,81.640975,Y,Physical,Rural,Public,NA
Chhattisgarh,Bijapur,BHAIRAMGARH,chc,Bhairamgarh,NA,19.00749169,81.05998623,Y,Physical,Rural,Public,NA
Chhattisgarh,Bastar,TOKOPAAL,chc,TOKAPAL,NA,19.01151333,81.87652667,Y,Physical,Rural,Public,NA
Chhattisgarh,Bastar,LOHANDIGUDA,chc,LOHANDIGUDA,NA,19.17148488,81.75056794,Y,Physical,Rural,Public,NA
Chhattisgarh,Bastar,BAKAVAND,chc,BAKAWAND,NA,19.27100383,82.09594413,Y,Physical,Rural,Public,NA
Chhattisgarh,Narayanpur,ORCHHA,chc,Orchha,NA,19.36553053,81.17927377,Y,Physical,Rural,Public,NA
Chhattisgarh,Kondagaon,Kondagaon,chc,Mardapal,NA,19.37535092,81.54479028,Y,Physical,Rural,Public,NA
Chhattisgarh,Kondagaon,Makdi,chc,Makdi,NA,19.77484008,81.90539273,Y,Physical,Rural,Public,NA
Chhattisgarh,Kondagaon,Pharasgaon,chc,Pharasgaon,NA,19.85830142,81.63523376,Y,Physical,Rural,Public,NA
Chhattisgarh,Gariyaband,Deobhog,chc,Deobhog,NA,19.90005135,82.65386546,Y,Physical,Rural,Public,NA
Chhattisgarh,Kanker,KOYALIBEDA,chc,Koilibeda,NA,19.96201726,80.98138615,Y,Physical,Rural,Public,NA
Chhattisgarh,Kondagaon,Keshkal,chc,Dhanora,NA,19.9857,81.46406,Y,Physical,Rural,Public,NA
Chhattisgarh,Kondagaon,Bade Rajpur,chc,Vishrampuri,NA,20.0770027,81.76942892,Y,Physical,Rural,Public,NA
Chhattisgarh,Kondagaon,Keshkal,chc,Keshkal,NA,20.08334132,81.58898525,Y,Physical,Rural,Public,NA
Chhattisgarh,Kanker,ANTAGARH,chc,Antagarh,NA,20.09330135,81.16104191,Y,Physical,Rural,Public,NA
Chhattisgarh,Kanker,DURG KONDAL,chc,Durgukondal,NA,20.22226425,80.94605402,Y,Physical,Rural,Public,NA
Chhattisgarh,Gariyaband,Mainpur,chc,Mainpur,NA,20.291365,82.23514167,Y,Physical,Rural,Public,NA
Chhattisgarh,Kanker,Kanker,chc,Dhanelikanhar,NA,20.30140477,81.3457016,Y,Physical,Rural,Public,NA
Chhattisgarh,Kanker,Bhanupratappur,chc,Bhanupratappur,NA,20.30893833,81.07269667,Y,Physical,Rural,Public,NA
Chhattisgarh,Dhamtari,Nagri,chc,Nagri,NA,20.35088336,81.95682131,Y,Physical,Rural,Public,NA
Chhattisgarh,Rajnandgaon,MAANPUR,chc,Manpur,NA,20.3744421,80.72961204,Y,Physical,Rural,Public,NA
Chhattisgarh,Kanker,Narharpur,chc,Amoda,NA,20.37895629,81.57791067,Y,Physical,Rural,Public,NA
Chhattisgarh,Kanker,Narharpur,chc,Narharpur,NA,20.45036196,81.6278679,Y,Physical,Rural,Public,NA
Chhattisgarh,Balod,Dondi,chc,CHC Dondi,NA,20.48273833,81.08485167,Y,Physical,Rural,Public,NA
Chhattisgarh,Kanker,Charama,chc,Charama,NA,20.49427644,81.36887786,Y,Physical,Rural,Public,NA
Chhattisgarh,Rajnandgaon,MOHALAA,chc,Mohla,NA,20.58406295,80.74715445,Y,Physical,Rural,Public,NA
Chhattisgarh,Balod,Gurur,chc,CHC Gurur,NA,20.68355445,81.405764,Y,Physical,Rural,Public,NA
Chhattisgarh,Dhamtari,Magarlod,chc,MAGARLOD,NA,20.74776044,81.84843638,Y,Physical,Rural,Public,NA
Chhattisgarh,Rajnandgaon,CHAUKEE,chc,Ambagarh chowki,NA,20.77790318,80.74273406,Y,Physical,Rural,Public,NA
Chhattisgarh,Balod,Dondi Lohara,chc,CHC Dondi Lohara,NA,20.787375,81.05642167,Y,Physical,Rural,Public,NA
Chhattisgarh,Gariyaband,Chhura,chc,Chhura,NA,20.80996356,82.20665268,Y,Physical,Rural,Public,NA
Chhattisgarh,Dhamtari,Kurud,chc,Kurud,NA,20.83115155,81.71711795,Y,Physical,Rural,Public,NA
Chhattisgarh,Dhamtari,Dhamtari,chc,Gujra,NA,20.83120138,81.59080931,Y,Physical,Rural,Public,NA
Chhattisgarh,Dhamtari,Kurud,chc,Bhakhara,NA,20.88888337,81.59811401,Y,Physical,Rural,Public,NA
Chhattisgarh,Balod,Dondi Lohara,chc,Deori Bangla,NA,20.92745667,81.05017167,Y,Physical,Rural,Public,NA
Chhattisgarh,Balod,Gunderdehi,chc,CHC Gunderdehi,NA,20.94410477,81.28937181,Y,Physical,Rural,Public,NA
Chhattisgarh,Balod,Gunderdehi,chc,CHC Arjunda,NA,20.94411241,81.2893928,Y,Physical,Rural,Public,NA
Chhattisgarh,Gariyaband,Fingeshwar,chc,Fingeshwar,NA,20.96877434,82.03202546,Y,Physical,Rural,Public,NA
Chhattisgarh,Gariyaband,Fingeshwar,chc,Rajim,NA,20.96931719,81.87874164,Y,Physical,Rural,Public,NA
Chhattisgarh,Rajnandgaon,Dongargaon,chc,Dongargaon,NA,20.9727703,80.85232512,Y,Physical,Rural,Public,NA
Chhattisgarh,Raipur,Abhanpur,chc,CHC NAWAPARA,NA,20.98686244,81.87492167,Y,Physical,Rural,Public,NA
Chhattisgarh,Rajnandgaon,Chhuria,chc,Chhuria,NA,21.00632272,80.62786264,Y,Physical,Rural,Public,NA
Chhattisgarh,Durg,PATAN,chc,Patan,NA,21.04017,81.54314,Y,Physical,Rural,Public,NA
Chhattisgarh,Mahasamund,BAGBAHRA,chc,Bagbahra,NA,21.04736541,82.3840585,Y,Physical,Rural,Public,NA
Chhattisgarh,Raipur,Abhanpur,chc,CHC ABHANPUR,NA,21.05449679,81.74393036,Y,Physical,Rural,Public,NA
Chhattisgarh,Durg,DURG,chc,Nikum,NA,21.05654333,81.20179333,Y,Physical,Rural,Public,NA
Chhattisgarh,Durg,DURG,chc,Utai,NA,21.11994802,81.38124463,Y,Physical,Rural,Public,NA
Chhattisgarh,Durg,PATAN,chc,Jheet,NA,21.152325,81.55470667,Y,Physical,Rural,Public,NA
Chhattisgarh,Rajnandgaon,Dongargarh,chc,Dongargarh,NA,21.18788513,80.75599726,Y,Physical,Rural,Public,NA
Chhattisgarh,Raipur,Arang,chc,CHC Arang,NA,21.19391333,81.97016833,Y,Physical,Rural,Public,NA
Chhattisgarh,Rajnandgaon,Rajnandgaon,chc,Somni,NA,21.20024226,81.18148772,Y,Physical,Rural,Public,NA
Chhattisgarh,Mahasamund,PITHORA,chc,Pithora,NA,21.24987227,82.51705729,Y,Physical,Rural,Public,NA
Chhattisgarh,Durg,DHAMDHA,chc,Kumhari,NA,21.25887833,81.52392833,Y,Physical,Rural,Public,NA
Chhattisgarh,Raipur,Urban,chc,UCHC Kabirnagar,NA,21.26765373,81.59174254,Y,Physical,Rural,Public,NA
Chhattisgarh,Mahasamund,MAHASAMUND,chc,Tumgaon,NA,21.26969667,82.10086,Y,Physical,Rural,Public,NA
Chhattisgarh,Mahasamund,BASNA,chc,Basna,NA,21.27798167,82.82442167,Y,Physical,Rural,Public,NA
Chhattisgarh,Rajnandgaon,Rajnandgaon,chc,Ghumka,NA,21.28926552,81.09839037,Y,Physical,Rural,Public,NA
Chhattisgarh,Raipur,Dharseeva,chc,CHC Birgaon,NA,21.30793659,81.64933932,Y,Physical,Rural,Public,NA
Chhattisgarh,Mahasamund,SARAIPALI,chc,Saraipali,NA,21.32149146,82.97667981,Y,Physical,Rural,Public,NA
Chhattisgarh,Durg,DHAMDHA,chc,Bori,NA,21.35215464,81.27061293,Y,Physical,Rural,Public,NA
Chhattisgarh,Durg,DHAMDHA,chc,Ahiwara,NA,21.39530333,81.43395333,Y,Physical,Rural,Public,NA
Chhattisgarh,Raipur,Tilda,chc,CHC Kharora,NA,21.39802556,81.92639017,Y,Physical,Rural,Public,NA
Chhattisgarh,Raipur,Dharseeva,chc,Dharsiwa,NA,21.40613721,81.67148848,Y,Physical,Rural,Public,NA
Chhattisgarh,Durg,DHAMDHA,chc,Dhamdha,NA,21.46422,81.33215833,Y,Physical,Rural,Public,NA
Chhattisgarh,Rajnandgaon,CHHUIKHADAAN,chc,Chhuikhadan,NA,21.52237248,80.99573269,Y,Physical,Rural,Public,NA
Chhattisgarh,Bemetra,Berla,chc,CHC Berla,NA,21.52341167,81.47904333,Y,Physical,Rural,Public,NA
Chhattisgarh,Baloda Bazar,Palari,chc,Palari,NA,21.53509813,82.16534538,Y,Physical,Rural,Public,NA
Chhattisgarh,Raipur,Tilda,chc,CHC Tilda,NA,21.54989532,81.7963234,Y,Physical,Rural,Public,NA
Chhattisgarh,Raigarh,BARAMKELA,chc,CHC BARAMKELA,NA,21.56413667,83.28069853,Y,Physical,Rural,Public,NA
Chhattisgarh,Baloda Bazar,Simga,chc,Simga,NA,21.63038656,81.71477862,Y,Physical,Rural,Public,NA
Chhattisgarh,Baloda Bazar,Kasdol,chc,Kasdol,NA,21.6349,82.42026333,Y,Physical,Rural,Public,NA
Chhattisgarh,Rajnandgaon,CHHUIKHADAAN,chc,Gandai,NA,21.63521069,81.08270688,Y,Physical,Rural,Public,NA
Chhattisgarh,Baloda Bazar,Baloda Bazar,chc,Lavan,NA,21.64397529,82.33855406,Y,Physical,Rural,Public,NA
Chhattisgarh,Janjgir Champa,PAMGARH,chc,KHARAUD,NA,21.75077169,82.57670177,Y,Physical,Rural,Public,NA
Chhattisgarh,Raigarh,PUSSORE,chc,CHC PUSSORE,NA,21.75788401,83.38175262,Y,Physical,Rural,Public,NA
Chhattisgarh,Janjgir Champa,DABHARA,chc,Dabhara,NA,21.78139025,83.07101944,Y,Physical,Rural,Public,NA
Chhattisgarh,Bemetra,Saja,chc,CHC Thankhamriya,NA,21.800831,81.33581579,Y,Physical,Rural,Public,NA
Chhattisgarh,Bemetra,Bemetara,chc,Khandsara,NA,21.82121882,81.52827778,Y,Physical,Rural,Public,NA
Chhattisgarh,Kawardha,SAHASPUR LOHARA,chc,CHC S lohara,NA,21.83359,81.127115,Y,Physical,Rural,Public,NA
Chhattisgarh,Janjgir Champa,NAVAGARH,chc,Navagarh,NA,21.83508667,82.639895,Y,Physical,Rural,Public,NA
Chhattisgarh,Janjgir Champa,JAIJAIPUR,chc,Jaijaipur,NA,21.83752305,82.81685187,Y,Physical,Rural,Public,NA
Chhattisgarh,Janjgir Champa,PAMGARH,chc,Pamgarh,NA,21.87006304,82.45469662,Y,Physical,Rural,Public,NA
Chhattisgarh,Janjgir Champa,MAALKHARAUD,chc,Malkharoda,NA,21.87515206,82.98867407,Y,Physical,Rural,Public,NA
Chhattisgarh,Raigarh,RAIGARH,chc,PHC LOING RAIGARH,NA,21.88972194,83.41794125,Y,Physical,Rural,Public,NA
Chhattisgarh,Bemetra,Nawagarh,chc,CHC Nawagarh,NA,21.90435956,81.60734488,Y,Physical,Rural,Public,NA
Chhattisgarh,Janjgir Champa,BAMHANIDIH,chc,BAMHNIDIH,NA,21.90882681,82.72017889,Y,Physical,Rural,Public,NA
Chhattisgarh,Raigarh,SARANGARH,chc,CHC Sarangarh,NA,21.92029639,83.38019204,Y,Physical,Rural,Public,NA
Chhattisgarh,Bilaspur,BILHA,chc,BILHA,NA,21.95959617,82.08145157,Y,Physical,Rural,Public,NA
Chhattisgarh,Raigarh,KHARSIYA,chc,CHC CHAPLE KHARSIA,NA,21.98800159,83.18506026,Y,Physical,Rural,Public,NA
Chhattisgarh,Bilaspur,MASTOORI,chc,MASTURI,NA,21.99316166,82.26601272,Y,Physical,Rural,Public,NA
Chhattisgarh,Kawardha,Kawardha,chc,CHC Pipariya,NA,21.99547667,81.324535,Y,Physical,Rural,Public,NA
Chhattisgarh,Mungeli,Pathariya,chc,Pathariya,NA,22.01654299,81.84051117,Y,Physical,Rural,Public,NA
Chhattisgarh,Janjgir Champa,AKALTARA,chc,Akaltara,NA,22.021515,82.43339,Y,Physical,Rural,Public,NA
Chhattisgarh,Janjgir Champa,SAKTI,chc,Sakti,NA,22.02714333,82.95824333,Y,Physical,Rural,Public,NA
Chhattisgarh,Kawardha,Bodla,chc,Jhalmala,NA,22.04841545,80.99800512,Y,Physical,Rural,Public,NA
Chhattisgarh,Raigarh,TAMANAR,chc,CHC TAMNAR,NA,22.0879286,83.43764355,Y,Physical,Rural,Public,NA
Chhattisgarh,Janjgir Champa,BALODA,chc,Baloda,NA,22.13435702,82.47096224,Y,Physical,Rural,Public,NA
Chhattisgarh,Bilaspur,TAKHATPUR,chc,TAKHATPUR,NA,22.13826167,81.86660833,Y,Physical,Rural,Public,NA
Chhattisgarh,Kawardha,Bodla,chc,CHC Bodla,NA,22.16279809,81.2159886,Y,Physical,Rural,Public,NA
Chhattisgarh,Raigarh,GHARGHODA,chc,CHC Gharghoda,NA,22.17826231,83.34658536,Y,Physical,Rural,Public,NA
Chhattisgarh,Kawardha,Pandariya,chc,CHC Pandariya,NA,22.22754933,81.4030525,Y,Physical,Rural,Public,NA
Chhattisgarh,Mungeli,Lormi,chc,Lormi,NA,22.27204,81.699955,Y,Physical,Rural,Public,NA
Chhattisgarh,Bilaspur,KOTA,chc,Ratanpur,NA,22.282445,82.163265,Y,Physical,Rural,Public,NA
Chhattisgarh,Bilaspur,KOTA,chc,Kota,NA,22.28972594,82.01777841,Y,Physical,Rural,Public,NA
Chhattisgarh,Korba,Kartala,chc,KARTALA,NA,22.29579665,82.9620531,Y,Physical,Rural,Public,NA
Chhattisgarh,Korba,Katghora,chc,Dipka,NA,22.34960821,82.54299672,Y,Physical,Rural,Public,NA
Chhattisgarh,Kawardha,Pandariya,chc,KUKDUR,NA,22.35436965,81.35497372,Y,Physical,Rural,Public,NA
Chhattisgarh,Korba,Pali,chc,PALI,NA,22.37793031,82.32087549,Y,Physical,Rural,Public,NA
Chhattisgarh,Raigarh,LAILUNGA,chc,CHC LAILUNGA,NA,22.39950547,83.56363153,Y,Physical,Rural,Public,NA
Chhattisgarh,Korba,Katghora,chc,KATGHORA,NA,22.50930239,82.55093162,Y,Physical,Rural,Public,NA
Chhattisgarh,Jashpur,Pharsabahar,chc,PHARSABAHAR,NA,22.51960691,83.84944395,Y,Physical,Rural,Public,NA
Chhattisgarh,Jashpur,Pathalgaon,chc,PATHALGAON,NA,22.55860833,83.46514333,Y,Physical,Rural,Public,NA
Chhattisgarh,Korba,PODIUPARODA,chc,PONDI UPRORA,NA,22.59847508,82.55477179,Y,Physical,Rural,Public,NA
Chhattisgarh,Jashpur,Kansabel,chc,Kansabel,NA,22.64450678,83.74058627,Y,Physical,Rural,Public,NA
Chhattisgarh,Raigarh,DHARAMJAIGARH,chc,KAPU,NA,22.6696521,83.33590907,Y,Physical,Rural,Public,NA
Chhattisgarh,Raigarh,DHARAMJAIGARH,chc,CHC VIJAYNAGAR,NA,22.70481639,83.35564204,Y,Physical,Rural,Public,NA
Chhattisgarh,Jashpur,Duldula,chc,DULDULA,NA,22.71173444,84.10530899,Y,Physical,Rural,Public,NA
Chhattisgarh,Jashpur,Kunkuri,chc,KUNKURI,NA,22.74168224,83.95040881,Y,Physical,Rural,Public,NA
Chhattisgarh,Bilaspur,GAURELA,chc,Gourela,NA,22.74897667,81.90988,Y,Physical,Rural,Public,NA
Chhattisgarh,Surguja,Mainpat,chc,Mainpat,NA,22.76768,83.33659667,Y,Physical,Rural,Public,NA
Chhattisgarh,Bilaspur,PENDRA,chc,CHC PENDRA,NA,22.77785833,81.95917,Y,Physical,Rural,Public,NA
Chhattisgarh,Surguja,Sitapur,chc,Sitapur,NA,22.78158118,83.49522526,Y,Physical,Rural,Public,NA
Chhattisgarh,Jashpur,Jashpur,chc,LODAM,NA,22.87101435,84.12857483,Y,Physical,Rural,Public,NA
Chhattisgarh,Surguja,Udaipur,chc,Udaipur,NA,22.91120743,82.94964934,Y,Physical,Rural,Public,NA
Chhattisgarh,Surguja,Batauli,chc,Batauli,NA,22.96181126,83.42389673,Y,Physical,Rural,Public,NA
Chhattisgarh,Surajpur,Premnagar,chc,Premnagar,NA,22.96787697,82.68983886,Y,Physical,Rural,Public,NA
Chhattisgarh,Surguja,Lakhanpur,chc,Lakhanpur,NA,22.98354293,83.03792477,Y,Physical,Rural,Public,NA
Chhattisgarh,Jashpur,Manora,chc,MANORA,NA,22.99750379,84.05537973,Y,Physical,Rural,Public,NA
Chhattisgarh,Bilaspur,MARAVAHI,chc,MARWAHI,NA,23.00189279,82.05548522,Y,Physical,Rural,Public,NA
Chhattisgarh,Jashpur,Bagicha,chc,BAGICHA,NA,23.01458706,83.652703,Y,Physical,Rural,Public,NA
Chhattisgarh,Koriya,khadgawa,chc,Chirmiri,NA,23.10287091,82.38393991,Y,Physical,Rural,Public,NA
Chhattisgarh,Surajpur,Ramanujnagar,chc,Ramanujnagar,NA,23.14674404,82.71885177,Y,Physical,Rural,Public,NA
Chhattisgarh,Surajpur,Surajpur,chc,Bishrampur,NA,23.18481883,82.96567939,Y,Physical,Rural,Public,NA
Chhattisgarh,Surguja,Lundra,chc,Dhourpur,NA,23.19335777,83.43378562,Y,Physical,Rural,Public,NA
Chhattisgarh,Surajpur,Surajpur,chc,Latori,NA,23.21398333,83.09915333,Y,Physical,Rural,Public,NA
Chhattisgarh,Koriya,Manendragarh,chc,Manendragarh,NA,23.21577167,82.20586,Y,Physical,Rural,Public,NA
Chhattisgarh,Koriya,Baikunthpur,chc,Patna,NA,23.28,82.65,Y,Physical,Rural,Public,NA
Chhattisgarh,Balrampur,Kusmi,chc,Kusmi,NA,23.28078098,83.90033989,Y,Physical,Rural,Public,NA
Chhattisgarh,Balrampur,Shankargarh,chc,Shankargarh,NA,23.30069251,83.60073919,Y,Physical,Rural,Public,NA
Chhattisgarh,Balrampur,Rajpur,chc,Rajpur,NA,23.33803367,83.41879532,Y,Physical,Rural,Public,NA
Chhattisgarh,Surajpur,Bhaiyathan,chc,Bhatgaon,NA,23.34858362,83.00317162,Y,Physical,Rural,Public,NA
Chhattisgarh,Surajpur,Bhaiyathan,chc,Bhaiyathan,NA,23.39061,82.85192833,Y,Physical,Rural,Public,NA
Chhattisgarh,Koriya,Sonhat,chc,Sonhat,NA,23.4788902,82.51764057,Y,Physical,Rural,Public,NA
Chhattisgarh,Surajpur,Odgi,chc,Odgi,NA,23.47915333,82.804685,Y,Physical,Rural,Public,NA
Chhattisgarh,Surajpur,Pratappur,chc,Pratappur,NA,23.48496167,83.20269167,Y,Physical,Rural,Public,NA
Chhattisgarh,Koriya,Bharatpur,chc,Janakpur,NA,23.7201255,81.78751352,Y,Physical,Rural,Public,NA
Chhattisgarh,Balrampur,Wadrafnagar,chc,Wadrafnagar,NA,23.75111264,83.22058478,Y,Physical,Rural,Public,NA
Chhattisgarh,Balrampur,Ramanujganj,chc,Ramanujganj,NA,23.8071107,83.69911996,Y,Physical,Rural,Public,NA
Chhattisgarh,Sukma,District HQ,dis_h,DH SUKMA,NA,18.39257876,81.65712448,Y,Physical,Rural,Public,NA
Chhattisgarh,Bijapur,District HQ,dis_h,BIJAPUR,NA,18.79465992,80.81232543,Y,Physical,Rural,Public,NA
Chhattisgarh,Dantewada,District HQ,dis_h,Dantewada,NA,18.89356643,81.35057877,Y,Physical,Rural,Public,5541321179
Chhattisgarh,Bastar,Urban,dis_h,Maharani Hospital,NA,19.08452667,82.023285,Y,Physical,Rural,Public,NA
Chhattisgarh,Kondagaon,District HQ,dis_h,RAVINDRA TAGORE DH KONDAGAON,NA,19.58798448,81.67062595,Y,Physical,Rural,Public,NA
Chhattisgarh,Narayanpur,NARAYANPUR,dis_h,Narayanpur,NA,19.72365771,81.23425593,Y,Physical,Rural,Public,NA
Chhattisgarh,Kanker,District HQ,dis_h,kanker DH,NA,20.2729482,81.4868955,Y,Physical,Rural,Public,1111128748
Chhattisgarh,Gariyaband,District HQ,dis_h,DH GARIABAND,NA,20.63658833,82.05813167,Y,Physical,Rural,Public,8516687764
Chhattisgarh,Dhamtari,District HQ,dis_h,Dhamtari,NA,20.7083195,81.5301553,Y,Physical,Rural,Public,1111245831
Chhattisgarh,Balod,District HQ,dis_h,DH BALOD,NA,20.72993172,81.20401606,Y,Physical,Rural,Public,8147866233
Chhattisgarh,Rajnandgaon,District HQ,dis_h,Rajnandgaon,NA,21.08799,81.03046333,Y,Physical,Rural,Public,NA
Chhattisgarh,Mahasamund,Dist HQ,dis_h,Mahasamund,NA,21.12026061,82.07314101,Y,Physical,Rural,Public,NA
Chhattisgarh,Durg,DISTRICT HQ,dis_h,District Hospital Durg,NA,21.18705833,81.27932833,Y,Physical,Rural,Public,NA
Chhattisgarh,Raipur,District HQ,dis_h,Raipur,NA,21.23186541,81.64028853,Y,Physical,Rural,Public,NA
Chhattisgarh,Raipur,Medical College HQ,dis_h,MEDICAL COLLEGE RAIPUR,NA,21.2376284,81.5962147,Y,Physical,Rural,Public,NA
Chhattisgarh,Baloda Bazar,District HQ,dis_h,DH BALODA BAZAR,NA,21.65756899,82.15573072,Y,Physical,Rural,Public,7163875474
Chhattisgarh,Bemetra,District HQ,dis_h,DH BEMETARA,NA,21.70214326,81.53331817,Y,Physical,Rural,Public,NA
Chhattisgarh,Raigarh,District HQ,dis_h,Raigarh,NA,21.89289244,83.39550228,Y,Physical,Rural,Public,1111141881
Chhattisgarh,Kawardha,District HQ,dis_h,District Hospital Kawardha,NA,22.00739,81.21830667,Y,Physical,Rural,Public,NA
Chhattisgarh,Mungeli,District HQ,dis_h,DH MUNGELI,NA,22.06748606,81.6885011,Y,Physical,Rural,Public,4887652263
Chhattisgarh,Bilaspur,DISTRICT HQ,dis_h,Bilaspur DH,NA,22.07448193,82.15853268,Y,Physical,Rural,Public,NA
Chhattisgarh,Bilaspur,Medical College HQ,dis_h,MEDICAL COLLEGE BILASPUR,NA,22.08834844,82.15302333,Y,Physical,Rural,Public,NA
Chhattisgarh,Janjgir Champa,DISTRICT HOSPITAL,dis_h,DISTRICT HOSPITAL,NA,22.10267,82.92448,Y,Physical,Rural,Public,1112455462
Chhattisgarh,Korba,District HQ,dis_h,Indira gandhi dstt hospital korba,NA,22.3640629,82.74420405,Y,Physical,Rural,Public,1111254478
Chhattisgarh,Jashpur,District HQ,dis_h,Jashpur,NA,22.88289448,84.13700482,Y,Physical,Rural,Public,NA
Chhattisgarh,Surguja,District HQ,dis_h,Sarguja,NA,23.11043033,83.19359729,Y,Physical,Rural,Public,NA
Chhattisgarh,Surajpur,District HQ,dis_h,DH SURAJPUR,NA,23.21360955,82.86821583,Y,Physical,Rural,Public,NA
Chhattisgarh,Koriya,District HQ,dis_h,Koria,NA,23.25955171,82.564287,Y,Physical,Rural,Public,NA
Chhattisgarh,Balrampur,DISTRICT HQ,dis_h,DH BALRAMPUR,NA,23.60570333,83.61740333,Y,Physical,Rural,Public,NA
Chhattisgarh,Sukma,Konta,phc,Golapalli,NA,17.79641268,81.0365643,Y,Physical,Rural,Public,NA
Chhattisgarh,Sukma,Konta,phc,Dornapal,NA,18.15725254,81.50210839,Y,Physical,Rural,Public,NA
Chhattisgarh,Bijapur,USOOR,phc,Pamed,NA,18.19847644,80.89842589,Y,Physical,Rural,Public,NA
Chhattisgarh,Sukma,Konta,phc,Chintagupha,NA,18.25165091,81.2454543,Y,Physical,Rural,Public,NA
Chhattisgarh,Sukma,Sukma,phc,Gadiras,NA,18.28948715,81.55411702,Y,Physical,Rural,Public,NA
Chhattisgarh,Sukma,Sukma,phc,Kerlapal,NA,18.30401,81.28583,Y,Physical,Rural,Public,NA
Chhattisgarh,Sukma,Konta,phc,Gogunda,NA,18.38019,81.389076,Y,Physical,Rural,Public,NA
Chhattisgarh,Sukma,Sukma,phc,Burdi,NA,18.46526677,81.81195184,Y,Physical,Rural,Public,NA
Chhattisgarh,Dantewada,KUAKONDA,phc,Potali,NA,18.55434167,81.34972833,Y,Physical,Rural,Public,NA
Chhattisgarh,Bijapur,USOOR,phc,Pusgudi,NA,18.58561258,80.76572251,Y,Physical,Rural,Public,NA
Chhattisgarh,Bijapur,USOOR,phc,Basaguda,NA,18.59742425,80.69025296,Y,Physical,Rural,Public,NA
Chhattisgarh,Bijapur,USOOR,phc,Eilmidi,NA,18.59751658,80.69018117,Y,Physical,Rural,Public,NA
Chhattisgarh,Dantewada,KUAKONDA,phc,Palnar,NA,18.61738,81.39452333,Y,Physical,Rural,Public,NA
Chhattisgarh,Bijapur,BHOPALPATTANAM,phc,Tarlaguda,NA,18.619745,80.37019,Y,Physical,Rural,Public,NA
Chhattisgarh,Sukma,Chhindgarh,phc,Edjepal,NA,18.62979667,81.80017833,Y,Physical,Rural,Public,NA
Chhattisgarh,Sukma,Chhindgarh,phc,Kukanar,NA,18.63132167,81.73028833,Y,Physical,Rural,Public,NA
Chhattisgarh,Bijapur,BHOPALPATTANAM,phc,Madder,NA,18.63507,80.6219,Y,Physical,Rural,Public,NA
Chhattisgarh,Dantewada,KATEKALYAAN,phc,Bhusaras,NA,18.64116795,81.48559906,Y,Physical,Rural,Public,NA
Chhattisgarh,Dantewada,KATEKALYAAN,phc,Bade Gudra,NA,18.69006,81.37956,Y,Physical,Rural,Public,NA
Chhattisgarh,Sukma,Chhindgarh,phc,Sautnar,NA,18.70016833,81.88385333,Y,Physical,Rural,Public,NA
Chhattisgarh,Dantewada,Dantewada,phc,Bacheli,NA,18.70360333,81.248905,Y,Physical,Rural,Public,NA
Chhattisgarh,Sukma,Chhindgarh,phc,Tongpal,NA,18.72718106,81.80922978,Y,Physical,Rural,Public,NA
Chhattisgarh,Sukma,Chhindgarh,phc,Puspal,NA,18.73904336,81.90922725,Y,Physical,Rural,Public,NA
Chhattisgarh,Dantewada,KATEKALYAAN,phc,Surnar,NA,18.76655867,81.52123344,Y,Physical,Rural,Public,NA
Chhattisgarh,Bijapur,BIJAPUR,phc,Cherpal,NA,18.7698342,80.94965773,Y,Physical,Rural,Public,NA
Chhattisgarh,Bastar,DARBHA,phc,Koleng,NA,18.77866564,82.00594523,Y,Physical,Rural,Public,NA
Chhattisgarh,Bijapur,BHAIRAMGARH,phc,Kosalnar,NA,18.79514833,80.81672167,Y,Physical,Rural,Public,NA
Chhattisgarh,Bastar,DARBHA,phc,Pakhnar,NA,18.84530291,81.68589556,Y,Physical,Rural,Public,NA
Chhattisgarh,Bastar,BASTANAAR,phc,Kapanar,NA,18.84651241,81.65042025,Y,Physical,Rural,Public,NA
Chhattisgarh,Bastar,BASTANAAR,phc,Bade Kaklur,NA,18.88078454,81.61874533,Y,Physical,Rural,Public,NA
Chhattisgarh,Dantewada,Dantewada,phc,Metapal,NA,18.88632,81.45310333,Y,Physical,Rural,Public,NA
Chhattisgarh,Dantewada,Dantewada,phc,Pondum,NA,18.88633194,81.45300279,Y,Physical,Rural,Public,NA
Chhattisgarh,Bastar,Nangoor,phc,Tiriya,NA,18.90909766,82.17385596,Y,Physical,Rural,Public,NA
Chhattisgarh,Dantewada,Geedam,phc,Pharaspal,NA,18.939423,81.26432833,Y,Physical,Rural,Public,NA
Chhattisgarh,Dantewada,Geedam,phc,Jawanga,NA,18.96026667,81.44608833,Y,Physical,Rural,Public,NA
Chhattisgarh,Bastar,BASTANAAR,phc,Mutanpal,NA,18.97475507,81.57199044,Y,Physical,Rural,Public,NA
Chhattisgarh,Bastar,TOKOPAAL,phc,Kalepal,NA,19.009895,81.94225,Y,Physical,Rural,Public,NA
Chhattisgarh,Bastar,TOKOPAAL,phc,Mawlibhata,NA,19.01459833,81.82535333,Y,Physical,Rural,Public,NA
Chhattisgarh,Dantewada,Geedam,phc,Barsur,NA,19.02108,81.46469,Y,Physical,Rural,Public,NA
Chhattisgarh,Dantewada,Geedam,phc,Tumnar,NA,19.02111,81.46472,Y,Physical,Rural,Public,NA
Chhattisgarh,Bastar,Nangoor,phc,Kurandi,NA,19.03485795,82.10081466,Y,Physical,Rural,Public,NA
Chhattisgarh,Bastar,LOHANDIGUDA,phc,Alnar,NA,19.04159914,81.67578628,Y,Physical,Rural,Public,NA
Chhattisgarh,Dantewada,Geedam,phc,Chhindnar,NA,19.06717833,81.310365,Y,Physical,Rural,Public,NA
Chhattisgarh,Bastar,Nangoor,phc,Adawal,NA,19.07042639,82.06456399,Y,Physical,Rural,Public,NA
Chhattisgarh,Bastar,Urban,phc,Prathmik Swasthya Evam Jacha Bacha Kendra Geedam Road Jagdalpur,NA,19.07877216,82.00600293,Y,Physical,Urban,Public,NA
Chhattisgarh,Bastar,BASTAR,phc,Ghotia,NA,19.0808534,82.03048375,Y,Physical,Rural,Public,NA
Chhattisgarh,Bastar,TOKOPAAL,phc,Ransargipal,NA,19.08521531,81.86546511,Y,Physical,Rural,Public,NA
Chhattisgarh,Bijapur,BHAIRAMGARH,phc,Kutru,NA,19.09064523,80.79339783,Y,Physical,Rural,Public,NA
Chhattisgarh,Bastar,Nangoor,phc,Nagarnar,NA,19.09797063,82.17601201,Y,Physical,Rural,Public,NA
Chhattisgarh,Bastar,Nangoor,phc,Asna,NA,19.11860939,82.02489513,Y,Physical,Rural,Public,NA
Chhattisgarh,Bastar,TOKOPAAL,phc,Tahkapal,NA,19.12274425,81.86279394,Y,Physical,Rural,Public,NA
Chhattisgarh,Bastar,LOHANDIGUDA,phc,Binta,NA,19.12513616,81.59049017,Y,Physical,Rural,Public,NA
Chhattisgarh,Bastar,Nangoor,phc,Titirgaon,NA,19.12607271,81.98146428,Y,Physical,Rural,Public,NA
Chhattisgarh,Bastar,Nangoor,phc,Kumhrawand,NA,19.12755953,81.98034138,Y,Physical,Rural,Public,NA
Chhattisgarh,Bastar,BAKAVAND,phc,Malgaon,NA,19.13216296,82.06449568,Y,Physical,Rural,Public,NA
Chhattisgarh,Bastar,LOHANDIGUDA,phc,Mardum,NA,19.13734233,81.55510083,Y,Physical,Rural,Public,NA
Chhattisgarh,Bastar,LOHANDIGUDA,phc,BELAR,NA,19.15197948,81.79990591,Y,Physical,Rural,Public,NA
Chhattisgarh,Bastar,BASTAR,phc,Kolchur,NA,19.15823874,81.95964936,Y,Physical,Rural,Public,NA
Chhattisgarh,Bastar,TOKOPAAL,phc,Singanpur,NA,19.1604283,81.87406892,Y,Physical,Rural,Public,NA
Chhattisgarh,Bastar,BAKAVAND,phc,Kachnar,NA,19.16652655,82.00120011,Y,Physical,Rural,Public,NA
Chhattisgarh,Narayanpur,ORCHHA,phc,HANDAWADA,NA,19.16981319,81.23460595,Y,Physical,Rural,Public,NA
Chhattisgarh,Bastar,TOKOPAAL,phc,Chaparbhanpuri,NA,19.185535,81.87778833,Y,Physical,Rural,Public,NA
Chhattisgarh,Bastar,BASTAR,phc,Rotma,NA,19.20251443,81.80062663,Y,Physical,Rural,Public,NA
Chhattisgarh,Bastar,BASTAR,phc,Pakhnakongera,NA,19.2031821,81.93262874,Y,Physical,Rural,Public,NA
Chhattisgarh,Bastar,LOHANDIGUDA,phc,Hitameta,NA,19.20326846,81.42090525,Y,Physical,Rural,Public,NA
Chhattisgarh,Bastar,BASTAR,phc,Bastar,NA,19.20335728,81.93327724,Y,Physical,Rural,Public,NA
Chhattisgarh,Bastar,BASTAR,phc,Tirtha,NA,19.22456087,81.7551818,Y,Physical,Rural,Public,NA
Chhattisgarh,Bastar,BASTAR,phc,Mudagaon,NA,19.26955163,81.77396101,Y,Physical,Rural,Public,NA
Chhattisgarh,Bastar,BAKAVAND,phc,Jaibel,NA,19.27089746,82.09600855,Y,Physical,Rural,Public,NA
Chhattisgarh,Bastar,BASTAR,phc,Bhanpuri,NA,19.32904417,81.83484988,Y,Physical,Rural,Public,NA
Chhattisgarh,Bastar,BAKAVAND,phc,Mangnar,NA,19.34246489,82.04726653,Y,Physical,Rural,Public,NA
Chhattisgarh,Bastar,BAKAVAND,phc,Karpawand,NA,19.36385166,82.08551654,Y,Physical,Rural,Public,NA
Chhattisgarh,Bastar,BASTAR,phc,Kesharpal,NA,19.37667634,81.90122201,Y,Physical,Rural,Public,NA
Chhattisgarh,Narayanpur,NARAYANPUR,phc,CHHOTE DONGAR,NA,19.44727613,81.32626237,Y,Physical,Rural,Public,NA
Chhattisgarh,Narayanpur,NARAYANPUR,phc,DHANORA,NA,19.45032542,81.249684,Y,Physical,Rural,Public,NA
Chhattisgarh,Bastar,BAKAVAND,phc,Kolawal,NA,19.46697347,82.07785962,Y,Physical,Rural,Public,NA
Chhattisgarh,Kondagaon,Kondagaon,phc,Dahikonga,NA,19.47727807,81.72509133,Y,Physical,Rural,Public,NA
Chhattisgarh,Kondagaon,Kondagaon,phc,Bamhani,NA,19.52098936,81.63227154,Y,Physical,Rural,Public,NA
Chhattisgarh,Narayanpur,NARAYANPUR,phc,Dhoudai,NA,19.56513394,81.3686452,Y,Physical,Rural,Public,NA
Chhattisgarh,Narayanpur,ORCHHA,phc,KUTUL,NA,19.57323869,81.15937005,Y,Physical,Rural,Public,NA
Chhattisgarh,Kondagaon,Makdi,phc,Anatpur,NA,19.58748255,81.67058617,Y,Physical,Rural,Public,NA
Chhattisgarh,Kondagaon,Kondagaon,phc,Kondagaon,NA,19.58861364,81.66127734,Y,Physical,Rural,Public,NA
Chhattisgarh,Kondagaon,Kondagaon,phc,Bayanar,NA,19.600007,81.666693,Y,Physical,Rural,Public,NA
Chhattisgarh,Kondagaon,Kondagaon,phc,Chipawand,NA,19.600009,81.666691,Y,Physical,Rural,Public,NA
Chhattisgarh,Kondagaon,Kondagaon,phc,Bunagaon,NA,19.62117522,81.612897,Y,Physical,Rural,Public,NA
Chhattisgarh,Narayanpur,ORCHHA,phc,KOHAKAMETA,NA,19.6511396,81.07052759,Y,Physical,Rural,Public,NA
Chhattisgarh,Narayanpur,NARAYANPUR,phc,BENUR,NA,19.66631668,81.41914237,Y,Physical,Rural,Public,NA
Chhattisgarh,Kondagaon,Makdi,phc,Shampur,NA,19.71535283,81.77308658,Y,Physical,Rural,Public,NA
Chhattisgarh,Kondagaon,Pharasgaon,phc,Lanjoda,NA,19.73524,81.65163833,Y,Physical,Rural,Public,NA
Chhattisgarh,Narayanpur,ORCHHA,phc,GARPA,NA,19.76216457,80.86685889,Y,Physical,Rural,Public,NA
Chhattisgarh,Kondagaon,Pharasgaon,phc,Bade Dongar,NA,19.80195833,81.531435,Y,Physical,Rural,Public,NA
Chhattisgarh,Gariyaband,Deobhog,phc,Jhakharpara,NA,19.82453048,82.62830395,Y,Physical,Rural,Public,NA
Chhattisgarh,Kanker,ANTAGARH,phc,Kiskodo,NA,19.83483373,81.34961807,Y,Physical,Rural,Public,NA
Chhattisgarh,Kondagaon,Makdi,phc,Randhna,NA,19.84216501,81.74914487,Y,Physical,Rural,Public,NA
Chhattisgarh,Kondagaon,Makdi,phc,Lubha,NA,19.84222331,81.7491328,Y,Physical,Rural,Public,NA
Chhattisgarh,Gariyaband,Deobhog,phc,Diwanmuda,NA,19.8515973,82.6091716,Y,Physical,Rural,Public,NA
Chhattisgarh,Kanker,Pakhanjur,phc,Kurenar,NA,19.853716,80.5206,Y,Physical,Rural,Public,NA
Chhattisgarh,Kondagaon,Pharasgaon,phc,Kongud,NA,19.88870833,81.45216833,Y,Physical,Rural,Public,NA
Chhattisgarh,Kondagaon,Bade Rajpur,phc,Badbattar,NA,19.89516593,81.79650722,Y,Physical,Rural,Public,NA
Chhattisgarh,Gariyaband,Mainpur,phc,Urmal,NA,19.89652644,82.52071661,Y,Physical,Rural,Public,NA
Chhattisgarh,Kanker,Pakhanjur,phc,Bande,NA,19.92380188,80.54416344,Y,Physical,Rural,Public,NA
Chhattisgarh,Kondagaon,Keshkal,phc,Bahigaon,NA,19.95798015,81.61240938,Y,Physical,Rural,Public,NA
Chhattisgarh,Kanker,ANTAGARH,phc,Tadoki,NA,19.96559416,81.16007886,Y,Physical,Rural,Public,NA
Chhattisgarh,Gariyaband,Mainpur,phc,Amlipadar,NA,19.96821833,82.501365,Y,Physical,Rural,Public,NA
Chhattisgarh,Gariyaband,Mainpur,phc,Jhargaon,NA,19.97157333,82.50216,Y,Physical,Rural,Public,NA
Chhattisgarh,Kanker,Pakhanjur,phc,Partapur,NA,19.98977928,80.73373743,Y,Physical,Rural,Public,NA
Chhattisgarh,Kondagaon,Keshkal,phc,Eragaon,NA,20.02536833,81.33206667,Y,Physical,Rural,Public,NA
Chhattisgarh,Kanker,Pakhanjur,phc,PV 63,NA,20.02552291,80.72387217,Y,Physical,Rural,Public,NA
Chhattisgarh,Kondagaon,Keshkal,phc,Adenga,NA,20.04426067,81.63422041,Y,Physical,Rural,Public,NA
Chhattisgarh,Kanker,ANTAGARH,phc,Amabeda,NA,20.07361287,81.32986858,Y,Physical,Rural,Public,NA
Chhattisgarh,Dhamtari,Nagri,phc,Borai,NA,20.07576,81.87533333,Y,Physical,Rural,Public,NA
Chhattisgarh,Kanker,Pakhanjur,phc,Kapsi,NA,20.0912605,80.6756478,Y,Physical,Rural,Public,NA
Chhattisgarh,Kanker,Pakhanjur,phc,Bargaon,NA,20.13798444,80.77078905,Y,Physical,Rural,Public,NA
Chhattisgarh,Kanker,Narharpur,phc,Basanvahi,NA,20.20607067,81.76313,Y,Physical,Rural,Public,NA
Chhattisgarh,Kanker,Kanker,phc,Pirhapal,NA,20.20857896,81.3637681,Y,Physical,Rural,Public,NA
Chhattisgarh,Kanker,DURG KONDAL,phc,Konde,NA,20.22216913,80.94583031,Y,Physical,Rural,Public,NA
Chhattisgarh,Kanker,DURG KONDAL,phc,Kodekurse,NA,20.22357805,80.79181282,Y,Physical,Rural,Public,NA
Chhattisgarh,Kanker,Bhanupratappur,phc,Kewanti,NA,20.22738061,81.08739284,Y,Physical,Rural,Public,NA
Chhattisgarh,Kanker,Bhanupratappur,phc,Hatkarra,NA,20.24036167,81.26274333,Y,Physical,Rural,Public,NA
Chhattisgarh,Kanker,Kanker,phc,Sureli,NA,20.25863855,81.29533569,Y,Physical,Rural,Public,NA
Chhattisgarh,Kanker,Kanker,phc,Mardapoti,NA,20.26543167,81.48673667,Y,Physical,Rural,Public,NA
Chhattisgarh,Kanker,Urban,phc,UPHC Shriram Nagar Kanker,NA,20.27114166,81.47647817,Y,Physical,Urban,Public,NA
Chhattisgarh,Dhamtari,Nagri,phc,Belargaon,NA,20.27697848,81.84106201,Y,Physical,Rural,Public,NA
Chhattisgarh,Kanker,Narharpur,phc,Sarona,NA,20.28109263,81.65125522,Y,Physical,Rural,Public,NA
Chhattisgarh,Kanker,Narharpur,phc,Sarvandi,NA,20.28725553,81.72085791,Y,Physical,Rural,Public,NA
Chhattisgarh,Kanker,Narharpur,phc,Deoribalaji,NA,20.30698126,81.63131623,Y,Physical,Rural,Public,NA
Chhattisgarh,Kanker,Bhanupratappur,phc,Bhanbeda,NA,20.31866127,81.17094779,Y,Physical,Rural,Public,NA
Chhattisgarh,Kanker,Bhanupratappur,phc,Korar,NA,20.32047247,81.27225826,Y,Physical,Rural,Public,NA
Chhattisgarh,Dhamtari,Nagri,phc,Sihawa,NA,20.3271754,81.90003176,Y,Physical,Rural,Public,NA
Chhattisgarh,Dhamtari,Nagri,phc,Sankra,NA,20.33240637,82.02471475,Y,Physical,Rural,Public,NA
Chhattisgarh,Kanker,Kanker,phc,Bagodar,NA,20.34111026,81.48123285,Y,Physical,Rural,Public,NA
Chhattisgarh,Kanker,DURG KONDAL,phc,Damkasha,NA,20.34437344,80.94009708,Y,Physical,Rural,Public,NA
Chhattisgarh,Kanker,DURG KONDAL,phc,Lohattar,NA,20.35916725,80.86686976,Y,Physical,Rural,Public,NA
Chhattisgarh,Rajnandgaon,MAANPUR,phc,Aaundhi,NA,20.37892179,80.74353357,Y,Physical,Rural,Public,NA
Chhattisgarh,Kanker,Charama,phc,Kottara,NA,20.38394463,81.34096768,Y,Physical,Rural,Public,NA
Chhattisgarh,Kanker,Charama,phc,Shahwada,NA,20.38435347,81.48431753,Y,Physical,Rural,Public,NA
Chhattisgarh,Kanker,Narharpur,phc,Dabena,NA,20.38802414,81.68136107,Y,Physical,Rural,Public,NA
Chhattisgarh,Kanker,Charama,phc,Lakhanpuri,NA,20.39222375,81.42640407,Y,Physical,Rural,Public,NA
Chhattisgarh,Rajnandgaon,MAANPUR,phc,Bharritola,NA,20.41695804,80.80336906,Y,Physical,Rural,Public,NA
Chhattisgarh,Kanker,Charama,phc,Puri,NA,20.4305039,81.25706201,Y,Physical,Rural,Public,NA
Chhattisgarh,Dhamtari,Nagri,phc,Gattasilli,NA,20.44174369,81.80769271,Y,Physical,Rural,Public,NA
Chhattisgarh,Rajnandgaon,MAANPUR,phc,Khadgaon,NA,20.45400174,80.86875277,Y,Physical,Rural,Public,NA
Chhattisgarh,Balod,Dondi,phc,Amadula,NA,20.45581167,81.20697333,Y,Physical,Rural,Public,NA
Chhattisgarh,Gariyaband,Gariyaband,phc,Kosmi,NA,20.45726667,82.125055,Y,Physical,Rural,Public,NA
Chhattisgarh,Kanker,Charama,phc,Halba,NA,20.47910075,81.50772502,Y,Physical,Rural,Public,NA
Chhattisgarh,Kanker,Charama,phc,Haradula,NA,20.48066192,81.43268929,Y,Physical,Rural,Public,NA
Chhattisgarh,Dhamtari,Nagri,phc,Dugli,NA,20.4854,81.88065167,Y,Physical,Rural,Public,NA
Chhattisgarh,Kanker,Charama,phc,Kurrutola,NA,20.49540822,81.30316417,Y,Physical,Rural,Public,NA
Chhattisgarh,Balod,Dondi,phc,Surdonger,NA,20.4992,81.1406,Y,Physical,Rural,Public,NA
Chhattisgarh,Dhamtari,Dhamtari,phc,Akaladongari,NA,20.52052155,81.44607244,Y,Physical,Rural,Public,NA
Chhattisgarh,Dhamtari,Nagri,phc,Keregaon,NA,20.54988,81.72681833,Y,Physical,Rural,Public,NA
Chhattisgarh,Dhamtari,Magarlod,phc,Singpur,NA,20.57927667,81.87382833,Y,Physical,Rural,Public,NA
Chhattisgarh,Rajnandgaon,MOHALAA,phc,Gotatola,NA,20.58213886,80.87863752,Y,Physical,Rural,Public,NA
Chhattisgarh,Balod,Dondi,phc,Ghothiya,NA,20.59323167,81.18037833,Y,Physical,Rural,Public,NA
Chhattisgarh,Balod,Dondi,phc,PHC Chikhalakasa,NA,20.5999,81.0775,Y,Physical,Rural,Public,NA
Chhattisgarh,Dhamtari,Nagri,phc,Kukrel,NA,20.63044667,81.63978167,Y,Physical,Rural,Public,NA
Chhattisgarh,Gariyaband,Gariyaband,phc,Piperchedi,NA,20.63346833,82.235935,Y,Physical,Rural,Public,NA
Chhattisgarh,Rajnandgaon,MOHALAA,phc,Basadhi,NA,20.63846088,80.57042707,Y,Physical,Rural,Public,NA
Chhattisgarh,Gariyaband,Gariyaband,phc,Kochvay,NA,20.66266667,82.10104333,Y,Physical,Rural,Public,NA
Chhattisgarh,Balod,Gurur,phc,Palari,NA,20.66759596,81.48968389,Y,Physical,Rural,Public,NA
Chhattisgarh,Dhamtari,Dhamtari,phc,Bhatgaon,NA,20.66773761,81.52977827,Y,Physical,Rural,Public,NA
Chhattisgarh,Balod,Dondi Lohara,phc,Bhanwarmara,NA,20.67514,81.037085,Y,Physical,Rural,Public,NA
Chhattisgarh,Gariyaband,Chhura,phc,Rasela,NA,20.69020059,82.29698396,Y,Physical,Rural,Public,NA
Chhattisgarh,Dhamtari,Dhamtari,phc,Kharenga,NA,20.69022419,81.6426362,Y,Physical,Rural,Public,NA
Chhattisgarh,Rajnandgaon,MOHALAA,phc,Dangarh,NA,20.69663958,80.80411326,Y,Physical,Rural,Public,NA
Chhattisgarh,Balod,Balod,phc,Karhibhadar,NA,20.70029116,81.31294185,Y,Physical,Rural,Public,NA
Chhattisgarh,Dhamtari,Urban,phc,Itwari Bazar,NA,20.70174426,81.54856676,Y,Physical,Urban,Public,NA
Chhattisgarh,Rajnandgaon,CHAUKEE,phc,Koudikasha,NA,20.71910556,80.7347607,Y,Physical,Rural,Public,NA
Chhattisgarh,Balod,Dondi Lohara,phc,Arajpuri,NA,20.7329,80.96130833,Y,Physical,Rural,Public,NA
Chhattisgarh,Balod,Dondi Lohara,phc,Mangchuwa,NA,20.74064833,80.87002333,Y,Physical,Rural,Public,NA
Chhattisgarh,Dhamtari,Dhamtari,phc,Kandel,NA,20.74198147,81.65824341,Y,Physical,Rural,Public,NA
Chhattisgarh,Balod,Gurur,phc,Bodra,NA,20.74904614,81.41098907,Y,Physical,Rural,Public,NA
Chhattisgarh,Balod,Balod,phc,Piperchedi,NA,20.76113651,81.31832884,Y,Physical,Rural,Public,NA
Chhattisgarh,Dhamtari,Dhamtari,phc,Aamdi,NA,20.76768286,81.49552463,Y,Physical,Rural,Public,NA
Chhattisgarh,Gariyaband,Chhura,phc,Panduka,NA,20.781915,81.942505,Y,Physical,Rural,Public,NA
Chhattisgarh,Rajnandgaon,CHAUKEE,phc,Chilhati,NA,20.78289771,80.61230524,Y,Physical,Rural,Public,NA
Chhattisgarh,Rajnandgaon,CHAUKEE,phc,Mahud Machandur,NA,20.78346164,80.81655179,Y,Physical,Rural,Public,NA
Chhattisgarh,Dhamtari,Magarlod,phc,Megha,NA,20.78600553,81.80478909,Y,Physical,Rural,Public,NA
Chhattisgarh,Balod,Balod,phc,Latabod,NA,20.78791575,81.25219554,Y,Physical,Rural,Public,NA
Chhattisgarh,Balod,Gurur,phc,Purur,NA,20.79809301,81.48212074,Y,Physical,Rural,Public,NA
Chhattisgarh,Balod,Balod,phc,J.Sankara,NA,20.80199998,81.20212701,Y,Physical,Rural,Public,NA
Chhattisgarh,Balod,Gunderdehi,phc,Belodi,NA,20.80272968,81.35736295,Y,Physical,Rural,Public,NA
Chhattisgarh,Dhamtari,Kurud,phc,Parkhanda,NA,20.82706745,81.77985646,Y,Physical,Rural,Public,NA
Chhattisgarh,Balod,Gunderdehi,phc,Mahud B,NA,20.8286703,81.31695246,Y,Physical,Rural,Public,NA
Chhattisgarh,Rajnandgaon,Chhuria,phc,Umarwahi,NA,20.83014337,80.89225276,Y,Physical,Rural,Public,NA
Chhattisgarh,Gariyaband,Fingeshwar,phc,Kopra,NA,20.83146314,81.91512772,Y,Physical,Rural,Public,NA
Chhattisgarh,Balod,Gurur,phc,ARMARIKALA,NA,20.83415284,81.41036503,Y,Physical,Rural,Public,NA
Chhattisgarh,Rajnandgaon,CHAUKEE,phc,Bandha Bazar,NA,20.83555866,80.74429091,Y,Physical,Rural,Public,NA
Chhattisgarh,Gariyaband,Chhura,phc,Madeli,NA,20.83754867,82.13064651,Y,Physical,Rural,Public,NA
Chhattisgarh,Balod,Dondi Lohara,phc,Dubchera,NA,20.83813833,81.14252667,Y,Physical,Rural,Public,NA
Chhattisgarh,Rajnandgaon,CHAUKEE,phc,Jadutola,NA,20.84020248,80.73974425,Y,Physical,Rural,Public,NA
Chhattisgarh,Balod,Gunderdehi,phc,Sankri,NA,20.84380167,81.26024333,Y,Physical,Rural,Public,NA
Chhattisgarh,Dhamtari,Magarlod,phc,Hasda,NA,20.8516297,81.8730409,Y,Physical,Rural,Public,NA
Chhattisgarh,Rajnandgaon,Chhuria,phc,Kumarda,NA,20.855735,80.787345,Y,Physical,Rural,Public,NA
Chhattisgarh,Balod,Dondi Lohara,phc,Sanjari,NA,20.859022,81.01541065,Y,Physical,Rural,Public,NA
Chhattisgarh,Gariyaband,Chhura,phc,Khadma,NA,20.86320162,82.13396874,Y,Physical,Rural,Public,NA
Chhattisgarh,Balod,Gunderdehi,phc,Kurdi,NA,20.86535558,81.21319755,Y,Physical,Rural,Public,NA
Chhattisgarh,Dhamtari,Magarlod,phc,Kareli Badi,NA,20.86750101,81.83815771,Y,Physical,Rural,Public,NA
Chhattisgarh,Dhamtari,Kurud,phc,Korra,NA,20.86820837,81.54205115,Y,Physical,Rural,Public,NA
Chhattisgarh,Durg,PATAN,phc,Batrel,NA,20.88958302,81.41298374,Y,Physical,Rural,Public,NA
Chhattisgarh,Gariyaband,Chhura,phc,Patsiwni,NA,20.89351367,82.18014526,Y,Physical,Rural,Public,NA
Chhattisgarh,Dhamtari,Kurud,phc,Bhakhara,NA,20.89442,81.5994,Y,Physical,Rural,Public,NA
Chhattisgarh,Dhamtari,Kurud,phc,Nari,NA,20.89793545,81.80610714,Y,Physical,Rural,Public,NA
Chhattisgarh,Balod,Gunderdehi,phc,Kalangpur,NA,20.90111609,81.33355298,Y,Physical,Rural,Public,NA
Chhattisgarh,Rajnandgaon,Chhuria,phc,Gainda Tola,NA,20.90159431,80.64539154,Y,Physical,Rural,Public,NA
Chhattisgarh,Balod,Dondi Lohara,phc,Suregaon,NA,20.91365333,81.13534833,Y,Physical,Rural,Public,NA
Chhattisgarh,Gariyaband,Fingeshwar,phc,Kondkera,NA,20.91944123,81.97426526,Y,Physical,Rural,Public,NA
Chhattisgarh,Rajnandgaon,Dongargaon,phc,Badgaon  Charbhatha,NA,20.9284426,80.91999696,Y,Physical,Rural,Public,NA
Chhattisgarh,Rajnandgaon,Chhuria,phc,Buchatola,NA,20.9308425,80.58090133,Y,Physical,Rural,Public,NA
Chhattisgarh,Balod,Dondi Lohara,phc,Pinkapar,NA,20.934695,80.98413167,Y,Physical,Rural,Public,NA
Chhattisgarh,Dhamtari,Kurud,phc,Sirri,NA,20.93683189,81.73190259,Y,Physical,Rural,Public,NA
Chhattisgarh,Durg,PATAN,phc,Ranitarai,NA,20.94082461,81.50579346,Y,Physical,Rural,Public,NA
Chhattisgarh,Balod,Gunderdehi,phc,Gureda,NA,20.94416833,81.289755,Y,Physical,Rural,Public,NA
Chhattisgarh,Balod,Dondi Lohara,phc,Nahanda,NA,20.94675667,81.04869167,Y,Physical,Rural,Public,NA
Chhattisgarh,Balod,Gunderdehi,phc,Ranchirai,NA,20.94769371,81.39124708,Y,Physical,Rural,Public,NA
Chhattisgarh,Rajnandgaon,Dongargaon,phc,Khujji,NA,20.95538599,80.82613004,Y,Physical,Rural,Public,NA
Chhattisgarh,Balod,Gunderdehi,phc,Sirsida,NA,20.95736867,81.40667291,Y,Physical,Rural,Public,NA
Chhattisgarh,Mahasamund,BAGBAHRA,phc,Hathibahra,NA,20.95810263,82.34611431,Y,Physical,Rural,Public,NA
Chhattisgarh,Rajnandgaon,Dongargaon,phc,Arjuni,NA,20.9664481,80.84380745,Y,Physical,Rural,Public,NA
Chhattisgarh,Dhamtari,Kurud,phc,GJamgaon,NA,20.97015447,81.68173037,Y,Physical,Rural,Public,NA
Chhattisgarh,Mahasamund,BAGBAHRA,phc,Komakhan,NA,20.97017152,82.4560248,Y,Physical,Rural,Public,NA
Chhattisgarh,Mahasamund,BAGBAHRA,phc,Khamhariya,NA,20.97802154,82.25336714,Y,Physical,Rural,Public,NA
Chhattisgarh,Balod,Gunderdehi,phc,Kurshuni,NA,20.978686,81.23014666,Y,Physical,Rural,Public,NA
Chhattisgarh,Dhamtari,Kurud,phc,Chatod,NA,20.99095418,81.71963731,Y,Physical,Rural,Public,NA
Chhattisgarh,Balod,Gunderdehi,phc,Bhardakala,NA,20.99486582,81.14668658,Y,Physical,Rural,Public,NA
Chhattisgarh,Dhamtari,Kurud,phc,Kachna,NA,20.99558755,81.62678513,Y,Physical,Rural,Public,NA
Chhattisgarh,Raipur,Abhanpur,phc,Manikchauri,NA,21.00807902,81.78504876,Y,Physical,Rural,Public,NA
Chhattisgarh,Rajnandgaon,Dongargaon,phc,Karamtara,NA,21.01242819,80.95703259,Y,Physical,Rural,Public,NA
Chhattisgarh,Gariyaband,Fingeshwar,phc,Jamgaon,NA,21.01904172,82.08894123,Y,Physical,Rural,Public,NA
Chhattisgarh,Rajnandgaon,Rajnandgaon,phc,Surgi,NA,21.02654232,81.11038372,Y,Physical,Rural,Public,NA
Chhattisgarh,Rajnandgaon,Dongargaon,phc,Asara,NA,21.02856046,80.91680776,Y,Physical,Rural,Public,NA
Chhattisgarh,Durg,PATAN,phc,Gadadeeh,NA,21.03110167,81.42355333,Y,Physical,Rural,Public,NA
Chhattisgarh,Rajnandgaon,Chhuria,phc,Khobha,NA,21.03995899,80.55973312,Y,Physical,Rural,Public,NA
Chhattisgarh,Mahasamund,BAGBAHRA,phc,Junwani Khurd,NA,21.04151008,82.34424162,Y,Physical,Rural,Public,NA
Chhattisgarh,Mahasamund,BAGBAHRA,phc,Mungaser,NA,21.04732903,82.38409085,Y,Physical,Rural,Public,NA
Chhattisgarh,Mahasamund,MAHASAMUND,phc,Khatti,NA,21.04946667,82.18483833,Y,Physical,Rural,Public,NA
Chhattisgarh,Durg,DURG,phc,Machandur,NA,21.04982333,81.36037667,Y,Physical,Rural,Public,NA
Chhattisgarh,Raipur,Abhanpur,phc,Champaran,NA,21.05451824,81.74391965,Y,Physical,Rural,Public,NA
Chhattisgarh,Raipur,Abhanpur,phc,Khorpa,NA,21.05595578,81.64507742,Y,Physical,Rural,Public,NA
Chhattisgarh,Rajnandgaon,Chhuria,phc,Chichola,NA,21.06514007,80.67457889,Y,Physical,Rural,Public,NA
Chhattisgarh,Rajnandgaon,Dongargaon,phc,Tappa,NA,21.07637969,80.81870947,Y,Physical,Rural,Public,NA
Chhattisgarh,Raipur,Abhanpur,phc,Torla,NA,21.07967974,81.88894285,Y,Physical,Rural,Public,NA
Chhattisgarh,Raipur,Abhanpur,phc,Parsada,NA,21.08452023,81.59455797,Y,Physical,Rural,Public,NA
Chhattisgarh,Rajnandgaon,Dongargaon,phc,Tumdibod,NA,21.08737397,80.9117624,Y,Physical,Rural,Public,NA
Chhattisgarh,Mahasamund,BAGBAHRA,phc,Khallari,NA,21.08930333,82.285815,Y,Physical,Rural,Public,NA
Chhattisgarh,Rajnandgaon,Urban,phc,Shankarpur,NA,21.0971034,81.0302222,Y,Physical,Urban,Public,NA
Chhattisgarh,Rajnandgaon,Dongargarh,phc,Charbhatha,NA,21.09894613,80.57689186,Y,Physical,Rural,Public,NA
Chhattisgarh,Rajnandgaon,Urban,phc,Motipur,NA,21.1078087,81.0326795,Y,Physical,Urban,Public,NA
Chhattisgarh,Mahasamund,PITHORA,phc,Bhurkoni,NA,21.115145,82.55127167,Y,Physical,Rural,Public,NA
Chhattisgarh,Mahasamund,BAGBAHRA,phc,Tendukona,NA,21.11567722,82.46110205,Y,Physical,Rural,Public,NA
Chhattisgarh,Raipur,Abhanpur,phc,Uparwara,NA,21.11738005,81.76444789,Y,Physical,Rural,Public,NA
Chhattisgarh,Rajnandgaon,Dongargarh,phc,Lalbhadur Nagar,NA,21.1232079,80.71388114,Y,Physical,Rural,Public,NA
Chhattisgarh,Rajnandgaon,Dongargarh,phc,Rama Tola,NA,21.12326015,80.7139995,Y,Physical,Rural,Public,NA
Chhattisgarh,Raipur,Abhanpur,phc,Khilora,NA,21.128699,81.65279236,Y,Physical,Rural,Public,NA
Chhattisgarh,Rajnandgaon,Dongargarh,phc,Musara Kalan,NA,21.13360107,80.84129658,Y,Physical,Rural,Public,NA
Chhattisgarh,Durg,DURG,phc,Hanoda,NA,21.13641,81.30036,Y,Physical,Rural,Public,NA
Chhattisgarh,Mahasamund,MAHASAMUND,phc,Jhara,NA,21.14046517,82.30145636,Y,Physical,Rural,Public,NA
Chhattisgarh,Rajnandgaon,Rajnandgaon,phc,Sukul Daihan,NA,21.15155288,80.95182605,Y,Physical,Rural,Public,NA
Chhattisgarh,Rajnandgaon,Dongargarh,phc,Murmunda,NA,21.16360795,80.7777522,Y,Physical,Rural,Public,NA
Chhattisgarh,Durg,Urban,phc,Tanki Maroda,NA,21.163685,81.34994833,Y,Physical,Urban,Public,NA
Chhattisgarh,Durg,Urban,phc,Potiya,NA,21.17023248,81.28646563,Y,Physical,Urban,Public,NA
Chhattisgarh,Rajnandgaon,Dongargarh,phc,Kusami,NA,21.17247862,80.85914398,Y,Physical,Rural,Public,NA
Chhattisgarh,Raipur,Dharseeva,phc,Boriyakala,NA,21.17984975,81.68561787,Y,Physical,Rural,Public,NA
Chhattisgarh,Mahasamund,SARAIPALI,phc,Baloda,NA,21.18759667,83.06977,Y,Physical,Rural,Public,NA
Chhattisgarh,Durg,DURG,phc,Khursipar,NA,21.19521,81.38766,Y,Physical,Urban,Public,NA
Chhattisgarh,Mahasamund,MAHASAMUND,phc,Birkoni,NA,21.19622833,82.09932,Y,Physical,Rural,Public,NA
Chhattisgarh,Mahasamund,BASNA,phc,BADESAJAPALI,NA,21.19916499,82.13350257,Y,Physical,Rural,Public,NA
Chhattisgarh,Durg,PATAN,phc,Purena,NA,21.19929167,81.42720333,Y,Physical,Rural,Public,NA
Chhattisgarh,Durg,Urban,phc,Dhamdha Naka,NA,21.2000234,81.291,Y,Physical,Urban,Public,NA
Chhattisgarh,Rajnandgaon,Rajnandgaon,phc,Somni,NA,21.20024226,81.18148772,Y,Physical,Rural,Public,NA
Chhattisgarh,Raipur,Urban,phc,Boriyakhurd,NA,21.20254168,81.64475001,Y,Physical,Urban,Public,NA
Chhattisgarh,Durg,DURG,phc,Nagpura,NA,21.20264333,81.220425,Y,Physical,Rural,Public,NA
Chhattisgarh,Raipur,Dharseeva,phc,PHC Devpuri N,NA,21.20366522,81.67863961,Y,Physical,Rural,Public,NA
Chhattisgarh,Durg,Urban,phc,Kosa Nagar,NA,21.205,81.335,Y,Physical,Urban,Public,NA
Chhattisgarh,Durg,Urban,phc,Baghera,NA,21.20674833,81.27658667,Y,Physical,Urban,Public,NA
Chhattisgarh,Durg,Urban,phc,Khursipar,NA,21.20750167,81.40101333,Y,Physical,Urban,Public,NA
Chhattisgarh,Durg,PATAN,phc,Bhilai 3,NA,21.20823833,81.43270167,Y,Physical,Urban,Public,NA
Chhattisgarh,Raipur,Arang,phc,Rewa,NA,21.2091686,81.8867518,Y,Physical,Rural,Public,NA
Chhattisgarh,Durg,DURG,phc,Rasmada,NA,21.211145,81.23610833,Y,Physical,Rural,Public,NA
Chhattisgarh,Mahasamund,BASNA,phc,Baroli,NA,21.21139167,82.823935,Y,Physical,Rural,Public,NA
Chhattisgarh,Raipur,Urban,phc,UPHC Bhatagaon,NA,21.21172451,81.61860683,Y,Physical,Urban,Public,NA
Chhattisgarh,Mahasamund,MAHASAMUND,phc,Jhalap,NA,21.21324905,82.37882229,Y,Physical,Rural,Public,NA
Chhattisgarh,Raipur,Urban,phc,Mathpuraina,NA,21.21488736,81.63736017,Y,Physical,Urban,Public,NA
Chhattisgarh,Durg,Urban,phc,Baikunth Dham,NA,21.21580097,81.3596461,Y,Physical,Urban,Public,NA
Chhattisgarh,Mahasamund,PITHORA,phc,Saldih,NA,21.21726333,82.73381667,Y,Physical,Rural,Public,NA
Chhattisgarh,Durg,Urban,phc,Chhawani,NA,21.22,81.38302,Y,Physical,Urban,Public,NA
Chhattisgarh,Raipur,Urban,phc,UPHC ChangoraBhata,NA,21.22001667,81.60142833,Y,Physical,Urban,Public,NA
Chhattisgarh,Mahasamund,SARAIPALI,phc,Toshgaon,NA,21.22089167,82.93684667,Y,Physical,Rural,Public,NA
Chhattisgarh,Mahasamund,MAHASAMUND,phc,Patewa,NA,21.22291592,82.26513213,Y,Physical,Rural,Public,NA
Chhattisgarh,Durg,DURG,phc,Vaishali Nagar,NA,21.22319,81.35364,Y,Physical,Urban,Public,NA
Chhattisgarh,Durg,DURG,phc,Kohaka,NA,21.22490833,81.34027,Y,Physical,Urban,Public,NA
Chhattisgarh,Durg,DURG,phc,Junwani,NA,21.22753333,81.31513333,Y,Physical,Urban,Public,NA
Chhattisgarh,Rajnandgaon,Rajnandgaon,phc,Dumardeeh Kala,NA,21.22811331,81.02184739,Y,Physical,Rural,Public,NA
Chhattisgarh,Raipur,Arang,phc,Mandir Hasaud,NA,21.22990226,81.76915158,Y,Physical,Rural,Public,NA
Chhattisgarh,Raipur,Urban,phc,Purani basti khokho para,NA,21.2302,81.60425,Y,Physical,Urban,Public,NA
Chhattisgarh,Raipur,Urban,phc,UFWC Kalibadi,NA,21.234585,81.63853203,Y,Physical,Urban,Public,NA
Chhattisgarh,Mahasamund,MAHASAMUND,phc,Sinodha,NA,21.2420845,82.271624,Y,Physical,Rural,Public,NA
Chhattisgarh,Raipur,Urban,phc,Labhandi,NA,21.24392333,81.69531833,Y,Physical,Urban,Public,NA
Chhattisgarh,Raipur,Urban,phc,Nurani Chowk Raja Talab,NA,21.24844359,81.65013268,Y,Physical,Urban,Public,NA
Chhattisgarh,Durg,DURG,phc,Jewara,NA,21.2485486,81.31144512,Y,Physical,Rural,Public,NA
Chhattisgarh,Durg,DURG,phc,Khursul,NA,21.25119167,81.19465667,Y,Physical,Rural,Public,NA
Chhattisgarh,Rajnandgaon,Dongargarh,phc,Mohara,NA,21.25572116,80.83935205,Y,Physical,Rural,Public,NA
Chhattisgarh,Durg,DHAMDHA,phc,Surdung,NA,21.25675351,81.41378441,Y,Physical,Rural,Public,NA
Chhattisgarh,Mahasamund,PITHORA,phc,Sankra,NA,21.25712007,82.66336366,Y,Physical,Rural,Public,NA
Chhattisgarh,Raipur,Urban,phc,UPHC Kachna,NA,21.25840833,81.696135,Y,Physical,Urban,Public,NA
Chhattisgarh,Rajnandgaon,Khairagarh,phc,Markamtola,NA,21.26223415,81.03780405,Y,Physical,Rural,Public,NA
Chhattisgarh,Raipur,Urban,phc,Gudhiyari,NA,21.2658133,81.6192543,Y,Physical,Urban,Public,NA
Chhattisgarh,Raipur,Dharseeva,phc,Aamasiwni,NA,21.26794382,81.67066534,Y,Physical,Rural,Public,NA
Chhattisgarh,Raipur,Urban,phc,UPHC Mowa,NA,21.26820387,81.67055085,Y,Physical,Urban,Public,NA
Chhattisgarh,Raipur,Urban,phc,Gogaon,NA,21.27247963,81.60809827,Y,Physical,Urban,Public,NA
Chhattisgarh,Raipur,Arang,phc,Pharfaud,NA,21.27454357,81.95087718,Y,Physical,Rural,Public,NA
Chhattisgarh,Raipur,Arang,phc,Bhansoj,NA,21.27545274,81.90583334,Y,Physical,Rural,Public,NA
Chhattisgarh,Raipur,Urban,phc,Bhanpuri,NA,21.29062185,81.6377274,Y,Physical,Urban,Public,NA
Chhattisgarh,Raipur,Arang,phc,Chandkuri,NA,21.29526886,81.81152484,Y,Physical,Rural,Public,NA
Chhattisgarh,Mahasamund,PITHORA,phc,Bhithidih,NA,21.29824969,82.50343917,Y,Physical,Rural,Public,NA
Chhattisgarh,Mahasamund,SARAIPALI,phc,Singhoda,NA,21.29850051,83.18056615,Y,Physical,Rural,Public,NA
Chhattisgarh,Raipur,Dharseeva,phc,Urla,NA,21.30561012,81.62818625,Y,Physical,Rural,Public,NA
Chhattisgarh,Durg,DHAMDHA,phc,Murmunda,NA,21.30622331,81.46612329,Y,Physical,Rural,Public,NA
Chhattisgarh,Raipur,Arang,phc,Kurud Kutela,NA,21.31904356,82.12826352,Y,Physical,Rural,Public,NA
Chhattisgarh,Raipur,Dharseeva,phc,Dondekala,NA,21.33104147,81.76075322,Y,Physical,Rural,Public,NA
Chhattisgarh,Durg,DURG,phc,Nankathi,NA,21.33605918,81.33705663,Y,Physical,Rural,Public,NA
Chhattisgarh,Raipur,Dharseeva,phc,Mandhar,NA,21.34563669,81.69832684,Y,Physical,Rural,Public,NA
Chhattisgarh,Rajnandgaon,Khairagarh,phc,Mudipar,NA,21.34589639,80.86956984,Y,Physical,Rural,Public,NA
Chhattisgarh,Mahasamund,MAHASAMUND,phc,Sirpur,NA,21.34694394,82.18219857,Y,Physical,Rural,Public,NA
Chhattisgarh,Rajnandgaon,Khairagarh,phc,Jalbandha,NA,21.35396167,81.160835,Y,Physical,Rural,Public,NA
Chhattisgarh,Durg,DHAMDHA,phc,Medesara,NA,21.35725167,81.35490167,Y,Physical,Rural,Public,NA
Chhattisgarh,Rajnandgaon,Khairagarh,phc,Atariya,NA,21.363555,81.15437333,Y,Physical,Rural,Public,NA
Chhattisgarh,Mahasamund,SARAIPALI,phc,Patsendri,NA,21.366725,83.07143167,Y,Physical,Rural,Public,NA
Chhattisgarh,Mahasamund,PITHORA,phc,Pirda,NA,21.36760974,82.76691795,Y,Physical,Rural,Public,NA
Chhattisgarh,Mahasamund,BASNA,phc,Bhanwarpur,NA,21.36982333,82.90011,Y,Physical,Rural,Public,NA
Chhattisgarh,Bemetra,Berla,phc,PHC Gudheli,NA,21.38324012,81.50529995,Y,Physical,Rural,Public,NA
Chhattisgarh,Baloda Bazar,Palari,phc,Gidpuri,NA,21.38385763,82.16835026,Y,Physical,Rural,Public,NA
Chhattisgarh,Raipur,Tilda,phc,Bangoli,NA,21.40041333,81.85050667,Y,Physical,Rural,Public,NA
Chhattisgarh,Baloda Bazar,Kasdol,phc,Barnawapara,NA,21.40330471,82.42151765,Y,Physical,Rural,Public,NA
Chhattisgarh,Rajnandgaon,Khairagarh,phc,Pandadah,NA,21.41886717,80.98001884,Y,Physical,Rural,Public,NA
Chhattisgarh,Raigarh,BARAMKELA,phc,DONGRIPALI,NA,21.42057167,83.33105,Y,Physical,Rural,Public,NA
Chhattisgarh,Raipur,Dharseeva,phc,Silyari,NA,21.423315,81.75328333,Y,Physical,Rural,Public,NA
Chhattisgarh,Baloda Bazar,Kasdol,phc,Rajadevri,NA,21.44198484,82.61700434,Y,Physical,Rural,Public,NA
Chhattisgarh,Baloda Bazar,Palari,phc,Jarve,NA,21.44542782,82.08846606,Y,Physical,Rural,Public,NA
Chhattisgarh,Mahasamund,BASNA,phc,Lamber,NA,21.458825,82.934045,Y,Physical,Rural,Public,NA
Chhattisgarh,Mahasamund,BASNA,phc,Chanat,NA,21.462075,82.81325167,Y,Physical,Rural,Public,NA
Chhattisgarh,Raipur,Tilda,phc,Khairkhut,NA,21.47507022,81.76211071,Y,Physical,Rural,Public,NA
Chhattisgarh,Durg,DHAMDHA,phc,Pendravan,NA,21.47702167,81.23767333,Y,Physical,Rural,Public,NA
Chhattisgarh,Raigarh,SARANGARH,phc,KANAKBIRA,NA,21.48059333,83.123115,Y,Physical,Rural,Public,NA
Chhattisgarh,Mahasamund,PITHORA,phc,Bamhani,NA,21.48358586,82.71797241,Y,Physical,Rural,Public,NA
Chhattisgarh,Baloda Bazar,Palari,phc,Odan,NA,21.48476058,82.19935658,Y,Physical,Rural,Public,NA
Chhattisgarh,Raigarh,BARAMKELA,phc,LENDHRA,NA,21.49963167,83.29023,Y,Physical,Rural,Public,NA
Chhattisgarh,Durg,DHAMDHA,phc,Dargaon,NA,21.50052667,81.40997333,Y,Physical,Rural,Public,NA
Chhattisgarh,Rajnandgaon,CHHUIKHADAAN,phc,Gatapar,NA,21.5056061,80.87729099,Y,Physical,Rural,Public,NA
Chhattisgarh,Baloda Bazar,Kasdol,phc,Sonakhan,NA,21.51205309,82.60974353,Y,Physical,Rural,Public,NA
Chhattisgarh,Mahasamund,MAHASAMUND,phc,GARHSIVNI,NA,21.514425,82.88146,Y,Physical,Rural,Public,NA
Chhattisgarh,Rajnandgaon,CHHUIKHADAAN,phc,Udaipur,NA,21.51879167,81.092445,Y,Physical,Rural,Public,NA
Chhattisgarh,Bemetra,Berla,phc,PHC Devrbija,NA,21.52287333,81.47867167,Y,Physical,Rural,Public,NA
Chhattisgarh,Baloda Bazar,Palari,phc,Rohasi,NA,21.53578846,82.20259898,Y,Physical,Rural,Public,NA
Chhattisgarh,Baloda Bazar,Bilaigarh,phc,Gatadih,NA,21.55600988,82.91143588,Y,Physical,Rural,Public,NA
Chhattisgarh,Baloda Bazar,Palari,phc,Lachchanpur,NA,21.55958493,82.32443067,Y,Physical,Rural,Public,NA
Chhattisgarh,Baloda Bazar,Bilaigarh,phc,Dhansir,NA,21.56143768,82.72392339,Y,Physical,Rural,Public,NA
Chhattisgarh,Baloda Bazar,Palari,phc,Kosmandi,NA,21.56175294,82.14944809,Y,Physical,Rural,Public,NA
Chhattisgarh,Bemetra,Saja,phc,PHC Devkar,NA,21.5644206,81.32100642,Y,Physical,Rural,Public,NA
Chhattisgarh,Rajnandgaon,CHHUIKHADAAN,phc,Bundeli,NA,21.56875104,81.11511468,Y,Physical,Rural,Public,NA
Chhattisgarh,Bemetra,Berla,phc,PHC Anandgaon,NA,21.57139006,81.60981872,Y,Physical,Rural,Public,NA
Chhattisgarh,Rajnandgaon,CHHUIKHADAAN,phc,Ghirgholi,NA,21.57216323,81.03111265,Y,Physical,Rural,Public,NA
Chhattisgarh,Bemetra,Berla,phc,PHC Sarda,NA,21.5820581,81.56079411,Y,Physical,Rural,Public,NA
Chhattisgarh,Raigarh,SARANGARH,phc,BHEDWAN,NA,21.58521833,83.08206167,Y,Physical,Rural,Public,NA
Chhattisgarh,Bemetra,Saja,phc,PHC Parpodi,NA,21.5899909,81.21129594,Y,Physical,Rural,Public,NA
Chhattisgarh,Rajnandgaon,CHHUIKHADAAN,phc,Bakar Katta,NA,21.59960404,80.80123171,Y,Physical,Rural,Public,NA
Chhattisgarh,Baloda Bazar,Simga,phc,Damakheda,NA,21.60199,81.72725,Y,Physical,Rural,Public,NA
Chhattisgarh,Baloda Bazar,Simga,phc,Suhela,NA,21.61542502,81.9697666,Y,Physical,Rural,Public,NA
Chhattisgarh,Baloda Bazar,Bilaigarh,phc,Sarsiwa,NA,21.62891392,82.93294432,Y,Physical,Rural,Public,NA
Chhattisgarh,Baloda Bazar,Baloda Bazar,phc,Risda,NA,21.62923295,82.12280519,Y,Physical,Rural,Public,NA
Chhattisgarh,Raigarh,BARAMKELA,phc,SARIA,NA,21.63452709,83.36307534,Y,Physical,Rural,Public,NA
Chhattisgarh,Baloda Bazar,Bilaigarh,phc,Gopalpur,NA,21.63586293,82.86218128,Y,Physical,Rural,Public,NA
Chhattisgarh,Raigarh,BARAMKELA,phc,BONDA,NA,21.642255,83.30443,Y,Physical,Rural,Public,NA
Chhattisgarh,Bemetra,Bemetara,phc,PHC Jewara,NA,21.64397762,81.61848207,Y,Physical,Rural,Public,NA
Chhattisgarh,Baloda Bazar,Baloda Bazar,phc,Lahod,NA,21.65099841,82.26978251,Y,Physical,Rural,Public,NA
Chhattisgarh,Baloda Bazar,Kasdol,phc,Katgi,NA,21.65695914,82.51164532,Y,Physical,Rural,Public,NA
Chhattisgarh,Baloda Bazar,Bilaigarh,phc,Bhatgaon,NA,21.65711272,82.79536433,Y,Physical,Rural,Public,NA
Chhattisgarh,Baloda Bazar,Bilaigarh,phc,Pawni,NA,21.65770898,82.69584981,Y,Physical,Rural,Public,NA
Chhattisgarh,Raigarh,SARANGARH,phc,HIRRE,NA,21.66178171,83.14043095,Y,Physical,Rural,Public,NA
Chhattisgarh,Raigarh,SARANGARH,phc,GODAM,NA,21.66509388,83.16374901,Y,Physical,Rural,Public,NA
Chhattisgarh,Baloda Bazar,Bhatapara,phc,Mopar,NA,21.66555385,82.05011409,Y,Physical,Rural,Public,NA
Chhattisgarh,Raigarh,SARANGARH,phc,KOSIR,NA,21.67652667,82.99326333,Y,Physical,Rural,Public,NA
Chhattisgarh,Baloda Bazar,Simga,phc,Hathband,NA,21.68210767,81.82559539,Y,Physical,Rural,Public,NA
Chhattisgarh,Baloda Bazar,Kasdol,phc,Barpali,NA,21.68413356,82.57756614,Y,Physical,Rural,Public,NA
Chhattisgarh,Rajnandgaon,CHHUIKHADAAN,phc,Pendarwani,NA,21.69125475,81.13569945,Y,Physical,Rural,Public,NA
Chhattisgarh,Baloda Bazar,Baloda Bazar,phc,Arjuni,NA,21.69339279,82.06184239,Y,Physical,Rural,Public,NA
Chhattisgarh,Bemetra,Bemetara,phc,PHC Kusami,NA,21.69731903,81.62257554,Y,Physical,Rural,Public,NA
Chhattisgarh,Rajnandgaon,CHHUIKHADAAN,phc,Palimeta,NA,21.70498651,80.95641402,Y,Physical,Rural,Public,NA
Chhattisgarh,Baloda Bazar,Simga,phc,Rohra,NA,21.71349899,81.87413682,Y,Physical,Rural,Public,NA
Chhattisgarh,Bemetra,Bemetara,phc,PHC Chhirha,NA,21.71469378,81.53131428,Y,Physical,Rural,Public,NA
Chhattisgarh,Bilaspur,MASTOORI,phc,Kukurdikala,NA,21.72159167,82.34185833,Y,Physical,Rural,Public,NA
Chhattisgarh,Janjgir Champa,CIVIL DISPENSARIES,phc,Seorinarayan,NA,21.72164833,82.58777,Y,Physical,Rural,Public,NA
Chhattisgarh,Bilaspur,MASTOORI,phc,Jondhara,NA,21.72294167,82.39192167,Y,Physical,Rural,Public,NA
Chhattisgarh,Kawardha,SAHASPUR LOHARA,phc,Rakse,NA,21.73539,81.13425667,Y,Physical,Rural,Public,NA
Chhattisgarh,Raigarh,PUSSORE,phc,BADEBHANDAR,NA,21.73949288,83.28913422,Y,Physical,Rural,Public,NA
Chhattisgarh,Janjgir Champa,NAVAGARH,phc,Kera,NA,21.74039833,82.686965,Y,Physical,Rural,Public,NA
Chhattisgarh,Janjgir Champa,JAIJAIPUR,phc,Hasaud,NA,21.75124916,82.9154778,Y,Physical,Rural,Public,NA
Chhattisgarh,Janjgir Champa,BAMHANIDIH,phc,Birra,NA,21.75512216,82.7627529,Y,Physical,Rural,Public,NA
Chhattisgarh,Janjgir Champa,DABHARA,phc,Sapos,NA,21.75535575,83.16621054,Y,Physical,Rural,Public,NA
Chhattisgarh,Raigarh,PUSSORE,phc,CHHAPORA,NA,21.756845,83.42165956,Y,Physical,Rural,Public,NA
Chhattisgarh,Raigarh,PUSSORE,phc,JATARI,NA,21.77023872,83.27355507,Y,Physical,Rural,Public,NA
Chhattisgarh,Baloda Bazar,Bhatapara,phc,Bitkuli,NA,21.78074305,82.12336157,Y,Physical,Rural,Public,NA
Chhattisgarh,Rajnandgaon,CHHUIKHADAAN,phc,Salhewara,NA,21.78325787,80.8470135,Y,Physical,Rural,Public,NA
Chhattisgarh,Bemetra,Nawagarh,phc,PHC Nandghat,NA,21.78326958,81.80587428,Y,Physical,Rural,Public,NA
Chhattisgarh,Bemetra,Saja,phc,PHC Karesara,NA,21.78554782,81.47975461,Y,Physical,Rural,Public,NA
Chhattisgarh,Bilaspur,MASTOORI,phc,Loharsi,NA,21.78556333,82.34022833,Y,Physical,Rural,Public,NA
Chhattisgarh,Kawardha,SAHASPUR LOHARA,phc,Ranvirpur,NA,21.78733333,81.249035,Y,Physical,Rural,Public,NA
Chhattisgarh,Janjgir Champa,MAALKHARAUD,phc,Ghoghari,NA,21.78818845,83.00311867,Y,Physical,Rural,Public,NA
Chhattisgarh,Baloda Bazar,Bhatapara,phc,Mopka,NA,21.78848129,82.06621193,Y,Physical,Rural,Public,NA
Chhattisgarh,Kawardha,SAHASPUR LOHARA,phc,Bhimbhori,NA,21.79021667,81.10562333,Y,Physical,Rural,Public,NA
Chhattisgarh,Janjgir Champa,BAMHANIDIH,phc,Choria,NA,21.79469023,83.13638446,Y,Physical,Rural,Public,NA
Chhattisgarh,Bemetra,Bemetara,phc,PHC Chandanu,NA,21.79762679,81.68550479,Y,Physical,Rural,Public,NA
Chhattisgarh,Bemetra,Nawagarh,phc,PHC Temri,NA,21.80379794,81.86637747,Y,Physical,Rural,Public,NA
Chhattisgarh,Janjgir Champa,MAALKHARAUD,phc,Pirada,NA,21.8066367,82.9524761,Y,Physical,Rural,Public,NA
Chhattisgarh,Janjgir Champa,PAMGARH,phc,Rahoud,NA,21.81541054,82.5057748,Y,Physical,Rural,Public,NA
Chhattisgarh,Raigarh,PUSSORE,phc,PUTKAPURI,NA,21.82001277,83.27533502,Y,Physical,Rural,Public,NA
Chhattisgarh,Bemetra,Bemetara,phc,PHC Khandsara,NA,21.82121882,81.52827778,Y,Physical,Rural,Public,NA
Chhattisgarh,Janjgir Champa,NAVAGARH,phc,Salkhan,NA,21.82228667,82.585415,Y,Physical,Rural,Public,NA
Chhattisgarh,Raigarh,PUSSORE,phc,MIDMIDA,NA,21.82288458,83.42580191,Y,Physical,Rural,Public,NA
Chhattisgarh,Raigarh,KHARSIYA,phc,BINJKOT,NA,21.82704,83.45301333,Y,Physical,Rural,Public,NA
Chhattisgarh,Raigarh,PUSSORE,phc,BINJKOT,NA,21.82704,83.45301333,Y,Physical,Rural,Public,NA
Chhattisgarh,Bemetra,Bemetara,phc,PHC Marka,NA,21.82877316,81.61251083,Y,Physical,Rural,Public,NA
Chhattisgarh,Baloda Bazar,Bhatapara,phc,Nipaniya,NA,21.82882191,82.04417091,Y,Physical,Rural,Public,NA
Chhattisgarh,Raigarh,PUSSORE,phc,KONDATARAI,NA,21.83427291,83.35861087,Y,Physical,Rural,Public,NA
Chhattisgarh,Raigarh,RAIGARH,phc,BANORA,NA,21.83523167,83.51262,Y,Physical,Rural,Public,NA
Chhattisgarh,Kawardha,SAHASPUR LOHARA,phc,Rampur,NA,21.83633514,81.32387364,Y,Physical,Rural,Public,NA
Chhattisgarh,Bemetra,Nawagarh,phc,PHC Katai,NA,21.83883183,81.68633852,Y,Physical,Rural,Public,NA
Chhattisgarh,Bilaspur,BILHA,phc,Dagori,NA,21.841395,82.12818167,Y,Physical,Rural,Public,NA
Chhattisgarh,Bilaspur,MASTOORI,phc,Pachpedi,NA,21.84211667,82.26537167,Y,Physical,Rural,Public,NA
Chhattisgarh,Bilaspur,MASTOORI,phc,Okhar,NA,21.84469147,82.22892129,Y,Physical,Rural,Public,NA
Chhattisgarh,Raigarh,RAIGARH,phc,NAURANGPUR,NA,21.85417806,83.23702309,Y,Physical,Rural,Public,NA
Chhattisgarh,Janjgir Champa,MAALKHARAUD,phc,Singhara,NA,21.85985902,83.04144262,Y,Physical,Rural,Public,NA
Chhattisgarh,Bemetra,Nawagarh,phc,PHC Maro,NA,21.86100888,81.8692577,Y,Physical,Rural,Public,NA
Chhattisgarh,Raigarh,RAIGARH,phc,NANDELI,NA,21.86750833,83.30909167,Y,Physical,Rural,Public,NA
Chhattisgarh,Janjgir Champa,PAMGARH,phc,Bargaon,NA,21.87012828,82.45468249,Y,Physical,Rural,Public,NA
Chhattisgarh,Raigarh,RAIGARH,phc,JAMGAON,NA,21.87133,83.563655,Y,Physical,Rural,Public,NA
Chhattisgarh,Bemetra,Bemetara,phc,PHC Dadhi,NA,21.87328599,81.48386392,Y,Physical,Rural,Public,NA
Chhattisgarh,Kawardha,SAHASPUR LOHARA,phc,Udiyakala,NA,21.88111333,81.17692833,Y,Physical,Rural,Public,NA
Chhattisgarh,Bemetra,Bemetara,phc,PHC Batar,NA,21.88253114,81.51209025,Y,Physical,Rural,Public,NA
Chhattisgarh,Bilaspur,MASTOORI,phc,PHC Malhar,NA,21.88573824,82.24237675,Y,Physical,Rural,Public,NA
Chhattisgarh,Raigarh,RAIGARH,phc,SAMBALPURI,NA,21.88929417,83.42627007,Y,Physical,Rural,Public,NA
Chhattisgarh,Janjgir Champa,DABHARA,phc,Tundri,NA,21.89140583,83.14697284,Y,Physical,Rural,Public,NA
Chhattisgarh,Janjgir Champa,DABHARA,phc,Devarghata,NA,21.89644423,83.09142015,Y,Physical,Rural,Public,NA
Chhattisgarh,Raigarh,RAIGARH,phc,BHAGORA,NA,21.90257408,83.51104687,Y,Physical,Rural,Public,NA
Chhattisgarh,Janjgir Champa,PAMGARH,phc,Bhaison,NA,21.90552966,82.40223014,Y,Physical,Rural,Public,NA
Chhattisgarh,Raigarh,Urban MSSK,phc,UPHC Rambhata,NA,21.90574167,83.38400833,Y,Physical,Urban,Public,NA
Chhattisgarh,Raigarh,RAIGARH,phc,DUMARPALI,NA,21.91078634,83.29348896,Y,Physical,Rural,Public,NA
Chhattisgarh,Bemetra,Nawagarh,phc,PHC Sambalpur,NA,21.91131898,81.74761822,Y,Physical,Rural,Public,NA
Chhattisgarh,Bilaspur,BILHA,phc,Bartori,NA,21.9203,82.03192333,Y,Physical,Rural,Public,NA
Chhattisgarh,Bilaspur,BILHA,phc,Bodsara,NA,21.92197806,82.18448246,Y,Physical,Rural,Public,NA
Chhattisgarh,Kawardha,Kawardha,phc,Bamhani,NA,21.92649167,81.254055,Y,Physical,Rural,Public,NA
Chhattisgarh,Janjgir Champa,PAMGARH,phc,Mulmula,NA,21.92828386,82.34971877,Y,Physical,Rural,Public,NA
Chhattisgarh,Raigarh,RAIGARH,phc,KIRODIMAL NAGAR,NA,21.93128484,83.33329094,Y,Physical,Rural,Public,NA
Chhattisgarh,Janjgir Champa,NAVAGARH,phc,Dhurkot,NA,21.93498333,82.611385,Y,Physical,Rural,Public,NA
Chhattisgarh,Janjgir Champa,JAIJAIPUR,phc,Thathari,NA,21.93696041,82.82752291,Y,Physical,Rural,Public,NA
Chhattisgarh,Janjgir Champa,AKALTARA,phc,Nariyara,NA,21.93810167,82.383315,Y,Physical,Rural,Public,NA
Chhattisgarh,Raigarh,KHARSIYA,phc,SONDAKA,NA,21.93926412,83.19114204,Y,Physical,Rural,Public,NA
Chhattisgarh,Kawardha,Kawardha,phc,Indouri,NA,21.93995667,81.3486,Y,Physical,Rural,Public,NA
Chhattisgarh,Janjgir Champa,MAALKHARAUD,phc,Faguram,NA,21.94450286,83.09684665,Y,Physical,Rural,Public,NA
Chhattisgarh,Mungeli,Pathariya,phc,Rambode,NA,21.94756368,81.9834902,Y,Physical,Rural,Public,NA
Chhattisgarh,Janjgir Champa,BAMHANIDIH,phc,Sonthi,NA,21.95430623,82.69919751,Y,Physical,Rural,Public,NA
Chhattisgarh,Janjgir Champa,MAALKHARAUD,phc,Adhbhar,NA,21.95733166,83.02574679,Y,Physical,Rural,Public,NA
Chhattisgarh,Mungeli,Mungeli,phc,Pandarbhatta,NA,21.95830407,81.73246529,Y,Physical,Rural,Public,NA
Chhattisgarh,Raigarh,RAIGARH,phc,KODTARAI,NA,21.95839872,83.27624924,Y,Physical,Rural,Public,NA
Chhattisgarh,Kawardha,Bodla,phc,Rengakhar,NA,21.95842051,80.88084551,Y,Physical,Rural,Public,NA
Chhattisgarh,Bilaspur,BILHA,phc,Kadar,NA,21.96414051,82.1379922,Y,Physical,Rural,Public,NA
Chhattisgarh,Kawardha,Kawardha,phc,MANIKCHORI,NA,21.96622667,81.34154667,Y,Physical,Rural,Public,NA
Chhattisgarh,Mungeli,Pathariya,phc,Sildaha,NA,21.97484539,81.88886884,Y,Physical,Rural,Public,NA
Chhattisgarh,Raigarh,RAIGARH,phc,BANGUSIYA,NA,21.97681405,83.46956471,Y,Physical,Rural,Public,NA
Chhattisgarh,Janjgir Champa,JAIJAIPUR,phc,Raipura,NA,21.97729985,82.88865177,Y,Physical,Rural,Public,NA
Chhattisgarh,Janjgir Champa,AKALTARA,phc,Tilai,NA,21.98421333,82.49225167,Y,Physical,Rural,Public,NA
Chhattisgarh,Janjgir Champa,BAMHANIDIH,phc,Saragaon,NA,21.99005478,82.75086302,Y,Physical,Rural,Public,NA
Chhattisgarh,Mungeli,Pathariya,phc,Amora,NA,21.99013608,82.06649122,Y,Physical,Rural,Public,NA
Chhattisgarh,Bilaspur,MASTOORI,phc,Darrighat,NA,21.99331581,82.26585711,Y,Physical,Rural,Public,NA
Chhattisgarh,Mungeli,Mungeli,phc,Ghorpura,NA,21.99341333,81.685315,Y,Physical,Rural,Public,NA
Chhattisgarh,Raigarh,KHARSIYA,phc,TUREKELA,NA,21.99933868,83.05097894,Y,Physical,Rural,Public,NA
Chhattisgarh,Kawardha,Kawardha,phc,Marka,NA,22.00426667,81.41466,Y,Physical,Rural,Public,NA
Chhattisgarh,Janjgir Champa,BALODA,phc,Paharia,NA,22.004903,82.577492,Y,Physical,Rural,Public,NA
Chhattisgarh,Bemetra,Bemetara,phc,PHC Kathotiya,NA,22.00518534,81.49069182,Y,Physical,Rural,Public,NA
Chhattisgarh,Janjgir Champa,NAVAGARH,phc,Janjgir,NA,22.00764,82.58212667,Y,Physical,Rural,Public,NA
Chhattisgarh,Bilaspur,BILHA,phc,Chakarbhata,NA,22.00773833,82.10320833,Y,Physical,Rural,Public,NA
Chhattisgarh,Bilaspur,BILHA,phc,Hardikala,NA,22.00878296,82.16846909,Y,Physical,Rural,Public,NA
Chhattisgarh,Mungeli,Mungeli,phc,Navagaun Chinu,NA,22.01303637,81.73565896,Y,Physical,Rural,Public,NA
Chhattisgarh,Raigarh,TAMANAR,phc,SARAIPALI,NA,22.01445345,83.31035991,Y,Physical,Rural,Public,NA
Chhattisgarh,Raigarh,KHARSIYA,phc,SARWANI,NA,22.02069859,83.04930786,Y,Physical,Rural,Public,NA
Chhattisgarh,Janjgir Champa,CIVIL DISPENSARIES,phc,BARADWAR,NA,22.02334723,82.82706471,Y,Physical,Rural,Public,NA
Chhattisgarh,Janjgir Champa,AKALTARA,phc,Kapan,NA,22.02368833,82.49475,Y,Physical,Rural,Public,NA
Chhattisgarh,Mungeli,Pathariya,phc,Bhatgaon,NA,22.02407279,81.75932463,Y,Physical,Rural,Public,NA
Chhattisgarh,Janjgir Champa,SAKTI,phc,Lavsara,NA,22.02663681,82.88552451,Y,Physical,Rural,Public,NA
Chhattisgarh,Janjgir Champa,SAKTI,phc,Portha,NA,22.0273,82.95807333,Y,Physical,Rural,Public,NA
Chhattisgarh,Mungeli,Mungeli,phc,Palchuwa,NA,22.02837543,81.72441319,Y,Physical,Rural,Public,NA
Chhattisgarh,Bilaspur,TAKHATPUR,phc,AMSENA,NA,22.02853833,82.04358667,Y,Physical,Rural,Public,NA
Chhattisgarh,Mungeli,Pathariya,phc,Jagtakapa,NA,22.02940922,81.77942751,Y,Physical,Rural,Public,NA
Chhattisgarh,Janjgir Champa,AKALTARA,phc,Kotamisonar,NA,22.03016833,82.36285167,Y,Physical,Rural,Public,NA
Chhattisgarh,Bilaspur,MASTOORI,phc,Jairamnagar,NA,22.03506188,82.29658441,Y,Physical,Rural,Public,NA
Chhattisgarh,Bilaspur,BILHA,phc,Sirgitti,NA,22.03615,82.1742,Y,Physical,Rural,Public,NA
Chhattisgarh,Janjgir Champa,NAVAGARH,phc,Seoni,NA,22.04837,82.54155667,Y,Physical,Rural,Public,NA
Chhattisgarh,Kawardha,Pandariya,phc,Damapur,NA,22.05408241,81.46057978,Y,Physical,Rural,Public,NA
Chhattisgarh,Bilaspur,Urban,phc,UPHC Bandhawapara,NA,22.05971862,82.18149854,Y,Physical,Urban,Public,NA
Chhattisgarh,Bilaspur,BILHA,phc,Devrikhurda,NA,22.06108644,82.1986582,Y,Physical,Rural,Public,NA
Chhattisgarh,Janjgir Champa,NAVAGARH,phc,Sarkhon,NA,22.06214667,82.569945,Y,Physical,Rural,Public,NA
Chhattisgarh,Janjgir Champa,BAMHANIDIH,phc,Darang,NA,22.06646736,82.74651329,Y,Physical,Rural,Public,NA
Chhattisgarh,Janjgir Champa,SAKTI,phc,Masaniakala,NA,22.06891833,83.00434333,Y,Physical,Rural,Public,NA
Chhattisgarh,Bilaspur,TAKHATPUR,phc,PHC SAGAR,NA,22.07043333,81.99184333,Y,Physical,Rural,Public,NA
Chhattisgarh,Janjgir Champa,AKALTARA,phc,Dalhapodi,NA,22.07227667,82.37585,Y,Physical,Rural,Public,NA
Chhattisgarh,Mungeli,Mungeli,phc,khamariya,NA,22.07728797,81.84517209,Y,Physical,Rural,Public,NA
Chhattisgarh,Bilaspur,BILHA,phc,Lingiyadih,NA,22.0783,82.17861667,Y,Physical,Rural,Public,NA
Chhattisgarh,Bilaspur,Urban,phc,UPHC Gandhichowk,NA,22.07925047,82.16471719,Y,Physical,Urban,Public,NA
Chhattisgarh,Mungeli,Mungeli,phc,Padampur,NA,22.08163925,81.87459657,Y,Physical,Rural,Public,NA
Chhattisgarh,Bilaspur,Urban,phc,UPHC Rajkishor Nagar,NA,22.08292709,82.18318997,Y,Physical,Urban,Public,NA
Chhattisgarh,Janjgir Champa,SAKTI,phc,Kurda,NA,22.08323805,82.82935459,Y,Physical,Rural,Public,NA
Chhattisgarh,Janjgir Champa,BALODA,phc,Jarve B,NA,22.08799297,82.53122876,Y,Physical,Rural,Public,NA
Chhattisgarh,Janjgir Champa,SAKTI,phc,Jarve,NA,22.08883697,82.77929357,Y,Physical,Rural,Public,NA
Chhattisgarh,Bilaspur,TAKHATPUR,phc,MOCHHA,NA,22.09436833,81.96193833,Y,Physical,Rural,Public,NA
Chhattisgarh,Korba,Kartala,phc,Faraswani,NA,22.10092925,82.67389846,Y,Physical,Rural,Public,NA
Chhattisgarh,Janjgir Champa,SAKTI,phc,Devari,NA,22.10381,82.89389167,Y,Physical,Rural,Public,NA
Chhattisgarh,Mungeli,Mungeli,phc,Dashrangpur,NA,22.10555107,81.79344735,Y,Physical,Rural,Public,NA
Chhattisgarh,Raigarh,TAMANAR,phc,LIBRA,NA,22.10839461,83.5027302,Y,Physical,Rural,Public,NA
Chhattisgarh,Raigarh,KHARSIYA,phc,GORPAR,NA,22.10869489,82.99299509,Y,Physical,Rural,Public,NA
Chhattisgarh,Korba,Kartala,phc,Kharwani,NA,22.10959833,82.70161667,Y,Physical,Rural,Public,NA
Chhattisgarh,Mungeli,Mungeli,phc,Jarhagaun,NA,22.11064262,81.82304527,Y,Physical,Rural,Public,NA
Chhattisgarh,Mungeli,Mungeli,phc,Setganga,NA,22.11418302,81.54682027,Y,Physical,Rural,Public,NA
Chhattisgarh,Kawardha,Bodla,phc,Pondi,NA,22.11566791,81.26517297,Y,Physical,Rural,Public,NA
Chhattisgarh,Kawardha,Pandariya,phc,Kunda,NA,22.11716361,81.48137725,Y,Physical,Rural,Public,NA
Chhattisgarh,Janjgir Champa,SAKTI,phc,Barpalikala,NA,22.120675,82.85566333,Y,Physical,Rural,Public,NA
Chhattisgarh,Raigarh,KHARSIYA,phc,BARRA,NA,22.12365009,83.04981861,Y,Physical,Rural,Public,NA
Chhattisgarh,Mungeli,Mungeli,phc,Barela,NA,22.12548082,81.8556033,Y,Physical,Rural,Public,NA
Chhattisgarh,Kawardha,Pandariya,phc,Mohgaon,NA,22.12912392,81.34838443,Y,Physical,Rural,Public,NA
Chhattisgarh,Raigarh,DHARAMJAIGARH,phc,CHHAL,NA,22.13756581,83.11906287,Y,Physical,Rural,Public,NA
Chhattisgarh,Korba,Kartala,phc,Kothari,NA,22.13858834,82.68742633,Y,Physical,Rural,Public,NA
Chhattisgarh,Janjgir Champa,BALODA,phc,Gatawa,NA,22.1389314,82.62351735,Y,Physical,Rural,Public,NA
Chhattisgarh,Bilaspur,TAKHATPUR,phc,JARONDHA,NA,22.14729833,81.93806333,Y,Physical,Rural,Public,NA
Chhattisgarh,Raigarh,GHARGHODA,phc,TENDA NAWAPARA,NA,22.1476491,83.248109,Y,Physical,Rural,Public,NA
Chhattisgarh,Raigarh,KHARSIYA,phc,JOBI,NA,22.14836947,83.04063193,Y,Physical,Rural,Public,NA
Chhattisgarh,Bilaspur,MASTOORI,phc,Seepat,NA,22.15209903,82.29015761,Y,Physical,Rural,Public,NA
Chhattisgarh,Mungeli,Lormi,phc,Semarsal,NA,22.1656,81.79080833,Y,Physical,Rural,Public,NA
Chhattisgarh,Kawardha,Bodla,phc,Chilfi,NA,22.17196659,81.0515553,Y,Physical,Rural,Public,NA
Chhattisgarh,Mungeli,Lormi,phc,Lalpur Thana,NA,22.18287889,81.70052047,Y,Physical,Rural,Public,NA
Chhattisgarh,Mungeli,Lormi,phc,Devarhat,NA,22.18608228,81.75657028,Y,Physical,Rural,Public,NA
Chhattisgarh,Bilaspur,MASTOORI,phc,Nawagaon,NA,22.18651606,82.27743769,Y,Physical,Rural,Public,NA
Chhattisgarh,Bilaspur,TAKHATPUR,phc,GANIYARI,NA,22.19238833,82.032405,Y,Physical,Rural,Public,NA
Chhattisgarh,Janjgir Champa,DABHARA,phc,Chandrapur,NA,22.1935,81.63585,Y,Physical,Rural,Public,NA
Chhattisgarh,Janjgir Champa,DABHARA,phc,Kotami,NA,22.1935,81.63585,Y,Physical,Rural,Public,NA
Chhattisgarh,Korba,Kartala,phc,Rampur,NA,22.19512667,82.982405,Y,Physical,Rural,Public,NA
Chhattisgarh,Raigarh,GHARGHODA,phc,BAHIRKELA,NA,22.19956065,83.29752653,Y,Physical,Rural,Public,NA
Chhattisgarh,Korba,Kartala,phc,Kerakachhar,NA,22.20357333,82.87763167,Y,Physical,Rural,Public,NA
Chhattisgarh,Korba,Kartala,phc,Chikanipali,NA,22.20524705,82.80251443,Y,Physical,Rural,Public,NA
Chhattisgarh,Bilaspur,TAKHATPUR,phc,DAIJA,NA,22.20628667,81.92700167,Y,Physical,Rural,Public,NA
Chhattisgarh,Bilaspur,TAKHATPUR,phc,BELPAN,NA,22.21251,81.87201833,Y,Physical,Rural,Public,NA
Chhattisgarh,Mungeli,Lormi,phc,Khapri,NA,22.21275004,81.54319242,Y,Physical,Rural,Public,NA
Chhattisgarh,Kawardha,Pandariya,phc,Kishungarh,NA,22.21443113,81.48888145,Y,Physical,Rural,Public,NA
Chhattisgarh,Raigarh,TAMANAR,phc,URBA,NA,22.21978354,83.53293286,Y,Physical,Rural,Public,NA
Chhattisgarh,Mungeli,Lormi,phc,Chandeli,NA,22.22374118,81.66562795,Y,Physical,Rural,Public,NA
Chhattisgarh,Kawardha,Pandariya,phc,Pandatari,NA,22.22748821,81.40283515,Y,Physical,Rural,Public,NA
Chhattisgarh,Korba,Kartala,phc,Saragbundia,NA,22.22882833,82.73169833,Y,Physical,Rural,Public,NA
Chhattisgarh,Janjgir Champa,BALODA,phc,Pantora,NA,22.22919417,82.62729397,Y,Physical,Rural,Public,NA
Chhattisgarh,Bilaspur,BILHA,phc,Lakhram,NA,22.23065768,82.20185675,Y,Physical,Rural,Public,NA
Chhattisgarh,Korba,Korba,phc,Tilkeja,NA,22.23536531,82.75751874,Y,Physical,Rural,Public,NA
Chhattisgarh,Raigarh,LAILUNGA,phc,LAMDAND,NA,22.23946321,83.60790645,Y,Physical,Rural,Public,NA
Chhattisgarh,Korba,Pali,phc,Korbi,NA,22.25121049,82.55774743,Y,Physical,Rural,Public,NA
Chhattisgarh,Mungeli,Lormi,phc,Khairwar khurd,NA,22.25194107,81.57280388,Y,Physical,Rural,Public,NA
Chhattisgarh,Korba,Korba,phc,Patadhi,NA,22.25280167,82.73524,Y,Physical,Rural,Public,NA
Chhattisgarh,Bilaspur,TAKHATPUR,phc,PALI,NA,22.25537833,81.83072833,Y,Physical,Rural,Public,NA
Chhattisgarh,Bilaspur,KOTA,phc,Kargikala,NA,22.26453535,81.92507699,Y,Physical,Rural,Public,NA
Chhattisgarh,Bilaspur,MASTOORI,phc,Khondhara,NA,22.266335,82.38103,Y,Physical,Rural,Public,NA
Chhattisgarh,Korba,Korba,phc,Bhaisama,NA,22.26863238,82.78020091,Y,Physical,Rural,Public,NA
Chhattisgarh,Bilaspur,BILHA,phc,Beltara,NA,22.27044783,82.26531019,Y,Physical,Rural,Public,NA
Chhattisgarh,Raigarh,GHARGHODA,phc,KUDUMKELA,NA,22.27351886,83.28155001,Y,Physical,Rural,Public,NA
Chhattisgarh,Kawardha,Bodla,phc,Baijalpur,NA,22.2750884,81.28064094,Y,Physical,Rural,Public,NA
Chhattisgarh,Bilaspur,TAKHATPUR,phc,JUNAPARA,NA,22.275277,81.766397,Y,Physical,Rural,Public,NA
Chhattisgarh,Korba,Pali,phc,Utarda,NA,22.2759754,82.4599404,Y,Physical,Rural,Public,NA
Chhattisgarh,Kawardha,Pandariya,phc,Dullapur,NA,22.28546316,81.5353955,Y,Physical,Rural,Public,NA
Chhattisgarh,Mungeli,Lormi,phc,Salheghori,NA,22.29848667,81.60827667,Y,Physical,Rural,Public,NA
Chhattisgarh,Raigarh,DHARAMJAIGARH,phc,HATI,NA,22.29964217,83.09452571,Y,Physical,Rural,Public,NA
Chhattisgarh,Raigarh,LAILUNGA,phc,MUKDEGA,NA,22.30411409,83.68105482,Y,Physical,Rural,Public,NA
Chhattisgarh,Kawardha,Bodla,phc,Taregaon,NA,22.30535826,81.2790815,Y,Physical,Rural,Public,NA
Chhattisgarh,Mungeli,Lormi,phc,Ramhepur,NA,22.31623573,81.54912671,Y,Physical,Rural,Public,NA
Chhattisgarh,Korba,Katghora,phc,Bhilai Bazar,NA,22.31827719,82.60394111,Y,Physical,Rural,Public,NA
Chhattisgarh,Korba,Korba,phc,Kudmura,NA,22.32460561,83.07416328,Y,Physical,Rural,Public,NA
Chhattisgarh,Kawardha,Pandariya,phc,Chirpani,NA,22.33169975,81.51445588,Y,Physical,Rural,Public,NA
Chhattisgarh,Bilaspur,KOTA,phc,Pondi,NA,22.33446,82.13393167,Y,Physical,Rural,Public,NA
Chhattisgarh,Bilaspur,KOTA,phc,Navagoan Salka,NA,22.33903386,82.00912275,Y,Physical,Rural,Public,NA
Chhattisgarh,Bilaspur,KOTA,phc,Shivtarai,NA,22.34046191,81.93546954,Y,Physical,Rural,Public,NA
Chhattisgarh,Raigarh,LAILUNGA,phc,LARIPANI,NA,22.34059003,83.46846346,Y,Physical,Rural,Public,NA
Chhattisgarh,Korba,Korba,phc,Korba,NA,22.34405773,82.6992455,Y,Physical,Urban,Public,3673267831
Chhattisgarh,Korba,Korba,phc,Korkoma,NA,22.35143515,82.87022831,Y,Physical,Rural,Public,NA
Chhattisgarh,Raigarh,GHARGHODA,phc,KAYA,NA,22.3539356,83.38607738,Y,Physical,Rural,Public,NA
Chhattisgarh,Kawardha,Pandariya,phc,Kukdur,NA,22.35436965,81.35497372,Y,Physical,Rural,Public,NA
Chhattisgarh,Korba,Pali,phc,Hardibazar,NA,22.36096123,82.5051903,Y,Physical,Rural,Public,NA
Chhattisgarh,Korba,Urban,phc,UPHC DHODHIPARA,NA,22.36941131,82.71499798,Y,Physical,Urban,Public,8137436344
Chhattisgarh,Jashpur,Pharsabahar,phc,BHELWAN,NA,22.37241567,83.86195106,Y,Physical,Rural,Public,NA
Chhattisgarh,Bilaspur,KOTA,phc,Chapora,NA,22.37283167,82.12704167,Y,Physical,Rural,Public,NA
Chhattisgarh,Mungeli,Lormi,phc,Khudiya,NA,22.38786905,81.60242228,Y,Physical,Rural,Public,NA
Chhattisgarh,Korba,Urban,phc,UPHC KATAINAR,NA,22.39326484,82.62019803,Y,Physical,Urban,Public,1318868856
Chhattisgarh,Korba,Katghora,phc,Ranjana,NA,22.40272876,82.49865164,Y,Physical,Rural,Public,NA
Chhattisgarh,Jashpur,Pathalgaon,phc,SURUNGPANI,NA,22.40406108,83.65861458,Y,Physical,Rural,Public,NA
Chhattisgarh,Korba,Katghora,phc,Baki Mogara,NA,22.41045976,82.5969946,Y,Physical,Urban,Public,NA
Chhattisgarh,Korba,Katghora,phc,Chakabuda,NA,22.41343882,82.55185528,Y,Physical,Rural,Public,NA
Chhattisgarh,Kawardha,Bodla,phc,Daldali,NA,22.42226652,81.15339007,Y,Physical,Rural,Public,NA
Chhattisgarh,Jashpur,Pathalgaon,phc,KOTBA,NA,22.43362788,83.73970613,Y,Physical,Rural,Public,NA
Chhattisgarh,Bilaspur,KOTA,phc,Belgahna,NA,22.43569502,82.03344224,Y,Physical,Rural,Public,NA
Chhattisgarh,Korba,Pali,phc,Chaitma,NA,22.43635628,82.43039788,Y,Physical,Rural,Public,NA
Chhattisgarh,Korba,Urban,phc,UPHC GOPALPUR,NA,22.44135721,82.64477458,Y,Physical,Urban,Public,8128323873
Chhattisgarh,Raigarh,LAILUNGA,phc,RAJPUR,NA,22.44241275,83.49688592,Y,Physical,Rural,Public,NA
Chhattisgarh,Korba,Pali,phc,Lafa,NA,22.44732441,82.28580377,Y,Physical,Rural,Public,NA
Chhattisgarh,Jashpur,Pharsabahar,phc,BHAGORA,NA,22.45019575,83.8723638,Y,Physical,Rural,Public,NA
Chhattisgarh,Raigarh,DHARAMJAIGARH,phc,SISARINGA,NA,22.45857941,83.3051549,Y,Physical,Rural,Public,NA
Chhattisgarh,Raigarh,DHARAMJAIGARH,phc,BAYASI,NA,22.46355614,83.20645801,Y,Physical,Rural,Public,NA
Chhattisgarh,Bilaspur,KOTA,phc,Teganmada,NA,22.50186032,82.00407596,Y,Physical,Rural,Public,NA
Chhattisgarh,Jashpur,Pharsabahar,phc,TAPKARA,NA,22.5043519,83.9479503,Y,Physical,Rural,Public,NA
Chhattisgarh,Korba,Katghora,phc,Chhuri,NA,22.50936844,82.55101716,Y,Physical,Rural,Public,NA
Chhattisgarh,Korba,Korba,phc,Ajgarbahar,NA,22.52321348,82.70960736,Y,Physical,Rural,Public,NA
Chhattisgarh,Jashpur,Pathalgaon,phc,KUKARGAON,NA,22.52919431,83.63018244,Y,Physical,Rural,Public,NA
Chhattisgarh,Bilaspur,KOTA,phc,Kenda,NA,22.53165594,82.07970812,Y,Physical,Rural,Public,NA
Chhattisgarh,Raigarh,DHARAMJAIGARH,phc,GANPATPUR,NA,22.53215862,83.34710861,Y,Physical,Rural,Public,NA
Chhattisgarh,Korba,PODIUPARODA,phc,MAHORA,NA,22.53263842,82.50474616,Y,Physical,Rural,Public,NA
Chhattisgarh,Korba,Pali,phc,Saplwa,NA,22.53395,82.32762833,Y,Physical,Rural,Public,NA
Chhattisgarh,Jashpur,Pathalgaon,phc,BAGBAHAR,NA,22.54035,83.75786833,Y,Physical,Rural,Public,NA
Chhattisgarh,Bilaspur,KOTA,phc,Aamagohan,NA,22.54793959,81.93537479,Y,Physical,Rural,Public,NA
Chhattisgarh,Jashpur,Pathalgaon,phc,LUDEG,NA,22.55441167,83.60003333,Y,Physical,Rural,Public,NA
Chhattisgarh,Raigarh,DHARAMJAIGARH,phc,KHAMHAR,NA,22.57204696,83.24982348,Y,Physical,Rural,Public,NA
Chhattisgarh,Korba,PODIUPARODA,phc,TUMAN,NA,22.57680167,82.42237,Y,Physical,Rural,Public,NA
Chhattisgarh,Korba,Korba,phc,Shyang,NA,22.59160845,83.06786311,Y,Physical,Rural,Public,NA
Chhattisgarh,Korba,PODIUPARODA,phc,MACHADOLI,NA,22.59736991,82.60357146,Y,Physical,Rural,Public,NA
Chhattisgarh,Jashpur,Pharsabahar,phc,KERSAI,NA,22.60062822,83.95505116,Y,Physical,Rural,Public,NA
Chhattisgarh,Jashpur,Kansabel,phc,DOKDA,NA,22.61775822,83.86755877,Y,Physical,Rural,Public,NA
Chhattisgarh,Jashpur,Pathalgaon,phc,KILKILA,NA,22.61848887,83.41193237,Y,Physical,Rural,Public,NA
Chhattisgarh,Jashpur,Pathalgaon,phc,SHEKHARPUR,NA,22.61852887,83.61615872,Y,Physical,Rural,Public,NA
Chhattisgarh,Bilaspur,GAURELA,phc,Keonchi,NA,22.6318995,81.78922166,Y,Physical,Rural,Public,NA
Chhattisgarh,Raigarh,DHARAMJAIGARH,phc,CHALHA,NA,22.63992333,83.18017631,Y,Physical,Rural,Public,NA
Chhattisgarh,Jashpur,Pathalgaon,phc,TAMTA,NA,22.64502419,83.57214462,Y,Physical,Rural,Public,NA
Chhattisgarh,Korba,Korba,phc,Lemaru,NA,22.65005033,82.83324676,Y,Physical,Rural,Public,NA
Chhattisgarh,Bilaspur,GAURELA,phc,Khodri,NA,22.66583833,81.93221333,Y,Physical,Rural,Public,NA
Chhattisgarh,Korba,PODIUPARODA,phc,KATORI NAGOI,NA,22.67326943,82.37954971,Y,Physical,Rural,Public,NA
Chhattisgarh,Jashpur,Kansabel,phc,BAGIA,NA,22.67523751,83.85684436,Y,Physical,Rural,Public,NA
Chhattisgarh,Surguja,Sitapur,phc,Dhodhagaon,NA,22.67782719,83.61337,Y,Physical,Rural,Public,NA
Chhattisgarh,Korba,PODIUPARODA,phc,JADGA,NA,22.69648231,82.37386639,Y,Physical,Rural,Public,NA
Chhattisgarh,Surguja,Sitapur,phc,Guturma,NA,22.69766124,83.46871331,Y,Physical,Rural,Public,NA
Chhattisgarh,Bilaspur,PENDRA,phc,Kodgar,NA,22.70926,82.11265833,Y,Physical,Rural,Public,NA
Chhattisgarh,Bilaspur,GAURELA,phc,Sadhwani,NA,22.71623167,81.94263,Y,Physical,Rural,Public,NA
Chhattisgarh,Raigarh,DHARAMJAIGARH,phc,KUMARTA,NA,22.71917082,83.29027013,Y,Physical,Rural,Public,NA
Chhattisgarh,Bilaspur,PENDRA,phc,Amadand,NA,22.73185167,82.042295,Y,Physical,Rural,Public,NA
Chhattisgarh,Bilaspur,PENDRA,phc,Amadikhurd,NA,22.7319,82.04245167,Y,Physical,Rural,Public,NA
Chhattisgarh,Jashpur,Duldula,phc,KASTURA,NA,22.73387565,84.18083821,Y,Physical,Rural,Public,NA
Chhattisgarh,Surguja,Sitapur,phc,Pratapgarh,NA,22.7358005,83.47835576,Y,Physical,Rural,Public,NA
Chhattisgarh,Bilaspur,GAURELA,phc,FRU Senetorium,NA,22.75657833,81.93132333,Y,Physical,Rural,Public,NA
Chhattisgarh,Bilaspur,PENDRA,phc,Nawaganw,NA,22.764175,82.02441333,Y,Physical,Rural,Public,NA
Chhattisgarh,Korba,PODIUPARODA,phc,MORGA,NA,22.77127066,82.72607415,Y,Physical,Rural,Public,NA
Chhattisgarh,Surguja,Udaipur,phc,Kedma,NA,22.77300114,83.03247109,Y,Physical,Rural,Public,NA
Chhattisgarh,Bilaspur,PENDRA,phc,Kotmi,NA,22.81984,82.08491667,Y,Physical,Rural,Public,NA
Chhattisgarh,Surguja,Mainpat,phc,Kamleshwerpur,NA,22.82889759,83.28265388,Y,Physical,Rural,Public,NA
Chhattisgarh,Surajpur,Premnagar,phc,Tara,NA,22.83338674,82.73912729,Y,Physical,Rural,Public,NA
Chhattisgarh,Jashpur,Kunkuri,phc,Ranpur,NA,22.83617105,83.81618658,Y,Physical,Rural,Public,NA
Chhattisgarh,Korba,PODIUPARODA,phc,Pasan,NA,22.83795806,82.19590056,Y,Physical,Rural,Public,NA
Chhattisgarh,Surguja,Mainpat,phc,Bandana,NA,22.84509987,83.41945716,Y,Physical,Rural,Public,NA
Chhattisgarh,Jashpur,Bagicha,phc,Kurrog,NA,22.84519084,83.65974693,Y,Physical,Rural,Public,NA
Chhattisgarh,Jashpur,Kunkuri,phc,NARAYANPUR,NA,22.84728246,83.90779511,Y,Physical,Rural,Public,NA
Chhattisgarh,Surguja,Lakhanpur,phc,Kunni,NA,22.85742913,83.0609174,Y,Physical,Rural,Public,NA
Chhattisgarh,Surguja,Batauli,phc,Bataikela,NA,22.87330956,83.52327951,Y,Physical,Rural,Public,NA
Chhattisgarh,Jashpur,Jashpur,phc,ARRA,NA,22.87886122,84.14392995,Y,Physical,Rural,Public,NA
Chhattisgarh,Jashpur,Jashpur,phc,PAIKU,NA,22.88302223,84.13682793,Y,Physical,Rural,Public,NA
Chhattisgarh,Bilaspur,MARAVAHI,phc,Dhobhar,NA,22.88786156,81.97348382,Y,Physical,Rural,Public,NA
Chhattisgarh,Bilaspur,GAURELA,phc,Basti,NA,22.891,81.869,Y,Physical,Rural,Public,NA
Chhattisgarh,Jashpur,Jashpur,phc,GHOLENG,NA,22.90029908,84.16905117,Y,Physical,Rural,Public,NA
Chhattisgarh,Bilaspur,MARAVAHI,phc,Bharridand,NA,22.91680259,82.0647745,Y,Physical,Rural,Public,NA
Chhattisgarh,Jashpur,Bagicha,phc,Jhikki,NA,22.91942884,83.62313044,Y,Physical,Rural,Public,NA
Chhattisgarh,Surguja,Batauli,phc,Ghutrapara,NA,22.93067302,83.48439032,Y,Physical,Rural,Public,NA
Chhattisgarh,Bilaspur,MARAVAHI,phc,Danikundi,NA,22.93097504,82.10793822,Y,Physical,Rural,Public,NA
Chhattisgarh,Bilaspur,MARAVAHI,phc,Semardarri,NA,22.9319825,82.15662635,Y,Physical,Rural,Public,NA
Chhattisgarh,Korba,PODIUPARODA,phc,PIPARIYA,NA,22.952945,82.318755,Y,Physical,Rural,Public,NA
Chhattisgarh,Korba,PODIUPARODA,phc,KORBI,NA,22.9534441,82.52272271,Y,Physical,Rural,Public,NA
Chhattisgarh,Korba,PODIUPARODA,phc,SIRMINA,NA,22.9535352,82.52271344,Y,Physical,Rural,Public,NA
Chhattisgarh,Jashpur,Bagicha,phc,Kalia,NA,22.95552306,83.80763617,Y,Physical,Rural,Public,NA
Chhattisgarh,Surguja,Ambikapur,phc,Nawanagar,NA,22.9585909,83.26221022,Y,Physical,Rural,Public,NA
Chhattisgarh,Surguja,Udaipur,phc,Salka,NA,22.95883248,82.93146457,Y,Physical,Rural,Public,NA
Chhattisgarh,Jashpur,Manora,phc,GHAGHRA,NA,22.96633946,84.02867096,Y,Physical,Rural,Public,NA
Chhattisgarh,Surguja,Udaipur,phc,Khamhariya,NA,22.98732634,82.94110095,Y,Physical,Rural,Public,NA
Chhattisgarh,Jashpur,Bagicha,phc,Maini,NA,22.98733319,83.53676588,Y,Physical,Rural,Public,NA
Chhattisgarh,Surguja,Ambikapur,phc,Darima,NA,22.99367063,83.20217594,Y,Physical,Rural,Public,NA
Chhattisgarh,Bilaspur,MARAVAHI,phc,Seoni,NA,23.00839039,81.96178819,Y,Physical,Rural,Public,NA
Chhattisgarh,Surajpur,Premnagar,phc,Umeshwarpur,NA,23.00880044,82.79214614,Y,Physical,Rural,Public,NA
Chhattisgarh,Koriya,khadgawa,phc,Ratanpur,NA,23.02,82.42,Y,Physical,Rural,Public,NA
Chhattisgarh,Koriya,khadgawa,phc,Salka,NA,23.02282967,82.29191054,Y,Physical,Rural,Public,NA
Chhattisgarh,Surguja,Lundra,phc,Udari,NA,23.02766146,83.34717325,Y,Physical,Rural,Public,NA
Chhattisgarh,Jashpur,Manora,phc,SONKYARI,NA,23.03084698,83.9097586,Y,Physical,Rural,Public,NA
Chhattisgarh,Surguja,Ambikapur,phc,Barkela,NA,23.03091675,83.27587393,Y,Physical,Rural,Public,NA
Chhattisgarh,Surguja,Lakhanpur,phc,Lahpatra,NA,23.0336026,83.08735813,Y,Physical,Rural,Public,NA
Chhattisgarh,Surguja,Lundra,phc,Bargidih,NA,23.0399824,83.41459718,Y,Physical,Rural,Public,NA
Chhattisgarh,Koriya,khadgawa,phc,Badesalhi,NA,23.05,82.55,Y,Physical,Rural,Public,NA
Chhattisgarh,Jashpur,Bagicha,phc,Sanna,NA,23.06168365,83.78573678,Y,Physical,Rural,Public,NA
Chhattisgarh,Surguja,Lakhanpur,phc,Gumgara,NA,23.06532865,83.01024267,Y,Physical,Rural,Public,NA
Chhattisgarh,Surajpur,Premnagar,phc,Mahangai,NA,23.06565858,82.90791808,Y,Physical,Rural,Public,NA
Chhattisgarh,Surguja,Lundra,phc,Raghunathpur,NA,23.07168623,83.30720865,Y,Physical,Rural,Public,NA
Chhattisgarh,Surajpur,Ramanujnagar,phc,Ganesgpur,NA,23.08443097,82.63488471,Y,Physical,Rural,Public,NA
Chhattisgarh,Jashpur,Bagicha,phc,Pandrapath,NA,23.09526335,83.68323882,Y,Physical,Rural,Public,NA
Chhattisgarh,Surajpur,Ramanujnagar,phc,Parshurampur,NA,23.09699534,82.7746172,Y,Physical,Rural,Public,NA
Chhattisgarh,Koriya,khadgawa,phc,Udhnapur,NA,23.10952494,82.26700919,Y,Physical,Rural,Public,NA
Chhattisgarh,Koriya,khadgawa,phc,Chirmi,NA,23.11380411,82.54409013,Y,Physical,Rural,Public,NA
Chhattisgarh,Surguja,Ambikapur,phc,Sukhari,NA,23.1150733,83.0429287,Y,Physical,Rural,Public,NA
Chhattisgarh,Jashpur,Manora,phc,ASTHA,NA,23.1176508,83.96894458,Y,Physical,Rural,Public,NA
Chhattisgarh,Surguja,Lundra,phc,Lundra,NA,23.12422757,83.40464285,Y,Physical,Rural,Public,NA
Chhattisgarh,Surajpur,Surajpur,phc,Kandrai,NA,23.12475235,82.98467881,Y,Physical,Rural,Public,NA
Chhattisgarh,Koriya,Manendragarh,phc,Banji,NA,23.125048,82.220714,Y,Physical,Rural,Public,NA
Chhattisgarh,Surguja,Urban,phc,UPHC Nawapara,NA,23.13587878,83.1853766,Y,Physical,Urban,Public,NA
Chhattisgarh,Surguja,Ambikapur,phc,Fundurdihari,NA,23.13741098,83.18823369,Y,Physical,Rural,Public,NA
Chhattisgarh,Jashpur,Bagicha,phc,Sulesa,NA,23.1439844,83.63730925,Y,Physical,Rural,Public,NA
Chhattisgarh,Surguja,Lundra,phc,Patora,NA,23.15303874,83.43930733,Y,Physical,Rural,Public,NA
Chhattisgarh,Jashpur,Bagicha,phc,Chichili,NA,23.1533017,83.8602474,Y,Physical,Rural,Public,NA
Chhattisgarh,Surguja,Lundra,phc,Dumardih,NA,23.15365256,83.49487325,Y,Physical,Rural,Public,NA
Chhattisgarh,Surajpur,Surajpur,phc,Ajabnagar,NA,23.15959107,83.10709265,Y,Physical,Rural,Public,NA
Chhattisgarh,Koriya,Manendragarh,phc,Ledari,NA,23.17,82.18,Y,Physical,Rural,Public,NA
Chhattisgarh,Koriya,khadgawa,phc,Banjaridand,NA,23.17045454,82.45205871,Y,Physical,Rural,Public,NA
Chhattisgarh,Surajpur,Ramanujnagar,phc,Chandarpur,NA,23.17480526,82.81224394,Y,Physical,Rural,Public,NA
Chhattisgarh,Surajpur,Surajpur,phc,Kamalpur,NA,23.17519698,83.06696597,Y,Physical,Rural,Public,NA
Chhattisgarh,Koriya,Urban,phc,Doman Hill,NA,23.18,82.35,Y,Physical,Urban,Public,NA
Chhattisgarh,Surajpur,Surajpur,phc,Ketka,NA,23.183944,82.87365929,Y,Physical,Rural,Public,NA
Chhattisgarh,Koriya,khadgawa,phc,Khadgawa,NA,23.18560021,82.38185167,Y,Physical,Rural,Public,NA
Chhattisgarh,Koriya,Manendragarh,phc,Khongapani,NA,23.1879029,82.16129286,Y,Physical,Rural,Public,NA
Chhattisgarh,Koriya,Baikunthpur,phc,Barpara,NA,23.18825463,82.59581532,Y,Physical,Rural,Public,NA
Chhattisgarh,Balrampur,Rajpur,phc,Aara,NA,23.19335167,83.33351833,Y,Physical,Rural,Public,NA
Chhattisgarh,Surajpur,Ramanujnagar,phc,Umapur,NA,23.19684101,82.67527246,Y,Physical,Rural,Public,NA
Chhattisgarh,Surguja,Ambikapur,phc,Bhafuli,NA,23.20774852,83.27175974,Y,Physical,Rural,Public,NA
Chhattisgarh,Balrampur,Kusmi,phc,Jawaharnagar,NA,23.21171786,83.95078531,Y,Physical,Rural,Public,NA
Chhattisgarh,Surajpur,Surajpur,phc,Latori,NA,23.21398333,83.09915333,Y,Physical,Rural,Public,NA
Chhattisgarh,Jashpur,Bagicha,phc,Champa,NA,23.21570557,83.74887961,Y,Physical,Rural,Public,NA
Chhattisgarh,Balrampur,Shankargarh,phc,Manoharpur,NA,23.21751033,83.57403256,Y,Physical,Rural,Public,NA
Chhattisgarh,Koriya,khadgawa,phc,Pondibachra,NA,23.21807687,82.34560425,Y,Physical,Rural,Public,NA
Chhattisgarh,Koriya,khadgawa,phc,Haldibari,NA,23.21810959,82.34555758,Y,Physical,Rural,Public,NA
Chhattisgarh,Surajpur,Ramanujnagar,phc,Devnagar,NA,23.2260653,82.77996846,Y,Physical,Rural,Public,NA
Chhattisgarh,Koriya,Baikunthpur,phc,Budar,NA,23.23758322,82.64223441,Y,Physical,Rural,Public,NA
Chhattisgarh,Surajpur,Surajpur,phc,Kalyanpur,NA,23.243005,83.19132,Y,Physical,Rural,Public,NA
Chhattisgarh,Balrampur,Rajpur,phc,Bario,NA,23.24591721,83.31631602,Y,Physical,Rural,Public,NA
Chhattisgarh,Koriya,Baikunthpur,phc,Mansukh,NA,23.24976985,82.50431546,Y,Physical,Rural,Public,NA
Chhattisgarh,Balrampur,Shankargarh,phc,Dipadihkala,NA,23.28443924,83.72382966,Y,Physical,Rural,Public,NA
Chhattisgarh,Koriya,Manendragarh,phc,Nagpur,NA,23.28883527,82.35050541,Y,Physical,Rural,Public,NA
Chhattisgarh,Koriya,Manendragarh,phc,Belbahra,NA,23.29015548,82.25741272,Y,Physical,Rural,Public,NA
Chhattisgarh,Surajpur,Bhaiyathan,phc,Batra,NA,23.29273526,82.96520279,Y,Physical,Rural,Public,NA
Chhattisgarh,Koriya,Baikunthpur,phc,Tangani,NA,23.30049143,82.7199571,Y,Physical,Rural,Public,NA
Chhattisgarh,Balrampur,Rajpur,phc,Rewatpur,NA,23.30152856,83.26796066,Y,Physical,Rural,Public,NA
Chhattisgarh,Surajpur,Surajpur,phc,Basdai,NA,23.30406937,82.86568162,Y,Physical,Rural,Public,NA
Chhattisgarh,Surajpur,Pratappur,phc,Songra,NA,23.30628608,83.08373198,Y,Physical,Rural,Public,NA
Chhattisgarh,Koriya,Baikunthpur,phc,Nagar,NA,23.31,82.44,Y,Physical,Rural,Public,NA
Chhattisgarh,Surajpur,Bhaiyathan,phc,Banja,NA,23.31564665,82.79283883,Y,Physical,Rural,Public,NA
Chhattisgarh,Surajpur,Bhaiyathan,phc,Sonpur,NA,23.32276381,82.78070262,Y,Physical,Rural,Public,NA
Chhattisgarh,Balrampur,Kusmi,phc,Bhunsikala,NA,23.33325186,83.81993724,Y,Physical,Rural,Public,NA
Chhattisgarh,Surajpur,Bhaiyathan,phc,Chungudi,NA,23.33886496,82.98174855,Y,Physical,Rural,Public,NA
Chhattisgarh,Surajpur,Pratappur,phc,Pampapur,NA,23.34113678,83.19294292,Y,Physical,Rural,Public,NA
Chhattisgarh,Koriya,Sonhat,phc,Katgodi,NA,23.36717089,82.52722667,Y,Physical,Rural,Public,NA
Chhattisgarh,Surajpur,Bhaiyathan,phc,Salka,NA,23.37083552,82.93035843,Y,Physical,Rural,Public,NA
Chhattisgarh,Balrampur,Shankargarh,phc,Bharatpur,NA,23.37296029,83.6698818,Y,Physical,Rural,Public,NA
Chhattisgarh,Balrampur,Rajpur,phc,Gopalpur,NA,23.39097225,83.34751605,Y,Physical,Rural,Public,NA
Chhattisgarh,Koriya,Manendragarh,phc,Biharpur,NA,23.39879275,82.24142297,Y,Physical,Rural,Public,NA
Chhattisgarh,Surajpur,Pratappur,phc,Dharampur,NA,23.40645667,83.18580333,Y,Physical,Rural,Public,NA
Chhattisgarh,Balrampur,Kusmi,phc,samri,NA,23.40955071,83.93531023,Y,Physical,Rural,Public,NA
Chhattisgarh,Surajpur,Odgi,phc,Dharsedi,NA,23.41273,82.72892667,Y,Physical,Rural,Public,NA
Chhattisgarh,Koriya,Manendragarh,phc,Kelhari,NA,23.41378481,82.04778538,Y,Physical,Rural,Public,NA
Chhattisgarh,Surajpur,Pratappur,phc,Karsi,NA,23.41769167,83.278555,Y,Physical,Rural,Public,NA
Chhattisgarh,Surajpur,Odgi,phc,Bhandi,NA,23.42033667,82.88068167,Y,Physical,Rural,Public,NA
Chhattisgarh,Surajpur,Bhaiyathan,phc,Chandermedha,NA,23.43618901,83.02030207,Y,Physical,Rural,Public,NA
Chhattisgarh,Surajpur,Odgi,phc,Chendra,NA,23.43841333,82.94351833,Y,Physical,Rural,Public,NA
Chhattisgarh,Surajpur,Bhaiyathan,phc,Gorpani,NA,23.43886125,82.7781012,Y,Physical,Rural,Public,NA
Chhattisgarh,Balrampur,Balrampur,phc,Pasta,NA,23.45311667,83.53469333,Y,Physical,Rural,Public,NA
Chhattisgarh,Surajpur,Pratappur,phc,Pendari,NA,23.45564333,83.319315,Y,Physical,Rural,Public,NA
Chhattisgarh,Surajpur,Odgi,phc,Lanjit,NA,23.46919167,82.76804667,Y,Physical,Rural,Public,NA
Chhattisgarh,Koriya,Sonhat,phc,Bhainswar,NA,23.48191127,82.47166372,Y,Physical,Rural,Public,NA
Chhattisgarh,Surajpur,Pratappur,phc,Rewti,NA,23.48669869,83.20799825,Y,Physical,Rural,Public,NA
Chhattisgarh,Surajpur,Pratappur,phc,Silota,NA,23.50183527,83.30217575,Y,Physical,Rural,Public,NA
Chhattisgarh,Balrampur,Kusmi,phc,Sabag,NA,23.5310909,83.97454235,Y,Physical,Rural,Public,NA
Chhattisgarh,Balrampur,Balrampur,phc,Ranhat,NA,23.54093833,83.316515,Y,Physical,Rural,Public,NA
Chhattisgarh,Balrampur,Kusmi,phc,Chando,NA,23.54158901,83.83531154,Y,Physical,Rural,Public,NA
Chhattisgarh,Balrampur,Balrampur,phc,Dumarkhola,NA,23.54433167,83.43962667,Y,Physical,Rural,Public,NA
Chhattisgarh,Balrampur,Balrampur,phc,Maharajganj,NA,23.593375,83.7124,Y,Physical,Rural,Public,NA
Chhattisgarh,Koriya,Bharatpur,phc,Bahrasi,NA,23.61920624,81.85018621,Y,Physical,Rural,Public,NA
Chhattisgarh,Balrampur,Wadrafnagar,phc,Chalgali,NA,23.62180755,83.36886279,Y,Physical,Rural,Public,NA
Chhattisgarh,Surajpur,Pratappur,phc,Ramkola,NA,23.63551167,83.11640833,Y,Physical,Rural,Public,NA
Chhattisgarh,Balrampur,Wadrafnagar,phc,Badkagaon,NA,23.65420173,83.31670703,Y,Physical,Rural,Public,NA
Chhattisgarh,Balrampur,Wadrafnagar,phc,Bartikala,NA,23.66299598,83.21866123,Y,Physical,Rural,Public,NA
Chhattisgarh,Koriya,Sonhat,phc,Ramgarh,NA,23.66953786,82.41972204,Y,Physical,Rural,Public,NA
Chhattisgarh,Balrampur,Ramanujganj,phc,Jamwantpur,NA,23.70219287,83.67377254,Y,Physical,Rural,Public,NA
Chhattisgarh,Koriya,Bharatpur,phc,Kunwarpur,NA,23.72012616,81.78746695,Y,Physical,Rural,Public,NA
Chhattisgarh,Koriya,Bharatpur,phc,Kotadol,NA,23.72255229,82.06578788,Y,Physical,Rural,Public,NA
Chhattisgarh,Surajpur,Odgi,phc,Moharsop,NA,23.72828167,82.69132,Y,Physical,Rural,Public,NA
Chhattisgarh,Koriya,Bharatpur,phc,Bharatpur,NA,23.7320833,81.76858247,Y,Physical,Rural,Public,NA
Chhattisgarh,Surajpur,Odgi,phc,Khond,NA,23.74078267,82.80847083,Y,Physical,Rural,Public,NA
Chhattisgarh,Balrampur,Wadrafnagar,phc,Sulsuli,NA,23.83211777,83.31839569,Y,Physical,Rural,Public,NA
Chhattisgarh,Balrampur,Wadrafnagar,phc,Raghunath Nagar,NA,23.84001067,82.91087661,Y,Physical,Rural,Public,NA
Chhattisgarh,Balrampur,Wadrafnagar,phc,Balangi,NA,23.84032285,82.91422532,Y,Physical,Rural,Public,NA
Chhattisgarh,Balrampur,Wadrafnagar,phc,Murkol,NA,23.84080388,83.2646219,Y,Physical,Rural,Public,NA
Chhattisgarh,Balrampur,Wadrafnagar,phc,Pandri,NA,23.84292155,82.87230525,Y,Physical,Rural,Public,NA
Chhattisgarh,Koriya,Bharatpur,phc,Madisarai,NA,23.8488926,81.68317905,Y,Physical,Rural,Public,NA
Chhattisgarh,Surajpur,Odgi,phc,Biharpur,NA,23.86098177,82.69383291,Y,Physical,Rural,Public,NA
Chhattisgarh,Balrampur,Ramanujganj,phc,Ramchandrapur,NA,23.93623,83.49832833,Y,Physical,Rural,Public,NA
Chhattisgarh,Balrampur,Ramanujganj,phc,Dindo,NA,24.03540723,83.33857533,Y,Physical,Rural,Public,NA
Chhattisgarh,Balrampur,Ramanujganj,phc,Sanawal,NA,24.04202653,83.3767355,Y,Physical,Rural,Public,NA
Chhattisgarh,Bastar,BASTAR,s_t_h,CH Bhanpuri,NA,19.27939954,81.87419782,Y,Physical,Rural,Public,NA
Chhattisgarh,Kanker,Civil Hospital,s_t_h,CH Pakhanjur,NA,20.03317954,80.62777387,Y,Physical,Rural,Public,NA
Chhattisgarh,Raipur,Civil Hospital,s_t_h,CH Mana,NA,21.1825897,81.7399917,Y,Physical,Rural,Public,NA
Chhattisgarh,Durg,Urban,s_t_h,Supela  UHFW,NA,21.2108165,81.3516936,Y,Physical,Urban,Public,NA
Chhattisgarh,Rajnandgaon,Khairagarh,s_t_h,Khairagarh,NA,21.4098599,80.9927505,Y,Physical,Rural,Public,NA
Chhattisgarh,Bemetra,Saja,s_t_h,CH Saja,NA,21.66486941,81.31466731,Y,Physical,Rural,Public,NA
Chhattisgarh,Raigarh,KHARSIYA,s_t_h,Civil Hospital Kharsia,NA,21.98813,83.104187,Y,Physical,Rural,Public,NA
Chhattisgarh,Raigarh,DHARAMJAIGARH,s_t_h,Civil Hospital Dharamjaigarh,NA,22.46,83.21,Y,Physical,Rural,Public,NA
Chhattisgarh,Sukma,Konta,sub_cen,Maraiguda,NA,17.79335296,81.03524103,Y,Physical,Rural,Public,NA
Chhattisgarh,Sukma,Konta,sub_cen,Konta,NA,17.81445683,81.37161859,Y,Physical,Rural,Public,NA
Chhattisgarh,Sukma,Konta,sub_cen,Sunamguda,NA,17.82867422,81.34772868,Y,Physical,Rural,Public,NA
Chhattisgarh,Sukma,Konta,sub_cen,Injaram,NA,17.87989487,81.3913871,Y,Physical,Rural,Public,NA
Chhattisgarh,Sukma,Konta,sub_cen,Arabor,NA,17.98117862,81.43706116,Y,Physical,Rural,Public,NA
Chhattisgarh,Sukma,Konta,sub_cen,Gaganpalli,NA,18.01940788,81.42015757,Y,Physical,Rural,Public,NA
Chhattisgarh,Sukma,Konta,sub_cen,Bheji,NA,18.03631,81.317711,Y,Physical,Rural,Public,NA
Chhattisgarh,Dantewada,Geedam,sub_cen,Chote Karka,NA,18.08025,81.322335,Y,Physical,Rural,Public,NA
Chhattisgarh,Sukma,Konta,sub_cen,Aargatta,NA,18.09017135,81.45802994,Y,Physical,Rural,Public,NA
Chhattisgarh,Sukma,Konta,sub_cen,Penta,NA,18.12521603,81.49298098,Y,Physical,Rural,Public,NA
Chhattisgarh,Sukma,Konta,sub_cen,Dornapal,NA,18.15631913,81.50763634,Y,Physical,Rural,Public,NA
Chhattisgarh,Sukma,Konta,sub_cen,Gorgunda,NA,18.17354,81.450607,Y,Physical,Rural,Public,NA
Chhattisgarh,Sukma,Konta,sub_cen,Polampalli,NA,18.18714,81.413078,Y,Physical,Rural,Public,NA
Chhattisgarh,Sukma,Konta,sub_cen,Dubbatota,NA,18.20191254,81.50004126,Y,Physical,Rural,Public,NA
Chhattisgarh,Sukma,Konta,sub_cen,Misma,NA,18.25248283,81.50910646,Y,Physical,Rural,Public,NA
Chhattisgarh,Sukma,Sukma,sub_cen,Kerlapal,NA,18.2894567,81.55408194,Y,Physical,Rural,Public,NA
Chhattisgarh,Sukma,Konta,sub_cen,Samsatti,NA,18.29063909,81.48277679,Y,Physical,Rural,Public,NA
Chhattisgarh,Sukma,Konta,sub_cen,Chintalnar,NA,18.351191,81.198639,Y,Physical,Rural,Public,NA
Chhattisgarh,Sukma,Sukma,sub_cen,Fulbagdi,NA,18.382918,81.55276103,Y,Physical,Rural,Public,NA
Chhattisgarh,Sukma,Chhindgarh,sub_cen,Kumakoleng,NA,18.38708554,81.65802566,Y,Physical,Rural,Public,NA
Chhattisgarh,Sukma,Sukma,sub_cen,Chingawaram,NA,18.39295604,81.65733444,Y,Physical,Rural,Public,NA
Chhattisgarh,Sukma,Sukma,sub_cen,Korra,NA,18.39307061,81.65811006,Y,Physical,Rural,Public,NA
Chhattisgarh,Sukma,Sukma,sub_cen,Jhapra,NA,18.39507368,81.73019655,Y,Physical,Rural,Public,NA
Chhattisgarh,Sukma,Sukma,sub_cen,Burdi I,NA,18.40537096,81.74239473,Y,Physical,Rural,Public,NA
